[
  {
    "station_no": "15018",
    "station_name": "Abbey St Bathans",
    "lat": 55.85329633,
    "lon": -2.387448356,
    "catchment_name": "Tweed",
    "river_name": "Whiteadder Water"
  },
  {
    "station_no": "234150",
    "station_name": "Aberlour",
    "lat": 57.48021805,
    "lon": -3.205975095,
    "catchment_name": "Spey",
    "river_name": "Spey"
  },
  {
    "station_no": "14966",
    "station_name": "Aberuchill",
    "lat": 56.37078118,
    "lon": -4.019153819,
    "catchment_name": "Earn",
    "river_name": "Earn"
  },
  {
    "station_no": "14969",
    "station_name": "Aberuthven",
    "lat": 56.31968188,
    "lon": -3.658685969,
    "catchment_name": "Earn",
    "river_name": "Ruthven Water"
  },
  {
    "station_no": "322551",
    "station_name": "Abington",
    "lat": 55.48691533,
    "lon": -3.69056827,
    "catchment_name": "Clyde",
    "river_name": "Clyde"
  },
  {
    "station_no": "302205",
    "station_name": "Aboyne",
    "lat": 57.07726163,
    "lon": -2.771636889,
    "catchment_name": "Dee (Aberdeenshire)",
    "river_name": "Tarland Burn"
  },
  {
    "station_no": "115300",
    "station_name": "Achfarry",
    "lat": 58.31095839,
    "lon": -4.916337385,
    "catchment_name": "---",
    "river_name": ""
  },
  {
    "station_no": "115301",
    "station_name": "Affric Lodge",
    "lat": 57.26272622,
    "lon": -5.005979754,
    "catchment_name": "Beauly",
    "river_name": ""
  },
  {
    "station_no": "133141",
    "station_name": "Airyhemming",
    "lat": 54.90049986,
    "lon": -4.839842855,
    "catchment_name": "Cree",
    "river_name": "Water of Luce"
  },
  {
    "station_no": "234170",
    "station_name": "Alford",
    "lat": 57.24230294,
    "lon": -2.717123004,
    "catchment_name": "Don (Aberdeenshire)",
    "river_name": "Don"
  },
  {
    "station_no": "115302",
    "station_name": "Allanfearn",
    "lat": 57.49914747,
    "lon": -4.151564133,
    "catchment_name": "Ness",
    "river_name": ""
  },
  {
    "station_no": "234151",
    "station_name": "Allnabad",
    "lat": 58.34717676,
    "lon": -4.644621014,
    "catchment_name": "Naver group",
    "river_name": "Strathmore"
  },
  {
    "station_no": "368538",
    "station_name": "Allt a' Ghlas-charnaich",
    "lat": 57.70934072,
    "lon": -4.836082499,
    "catchment_name": "Conon Group",
    "river_name": "Allt a Ghlas-chamaich"
  },
  {
    "station_no": "115304",
    "station_name": "Allt Dearg House",
    "lat": 57.28490502,
    "lon": -6.187008123,
    "catchment_name": "Inner Hebrides",
    "river_name": ""
  },
  {
    "station_no": "14954",
    "station_name": "Almondbank",
    "lat": 56.41527516,
    "lon": -3.51359839,
    "catchment_name": "Tay",
    "river_name": "Almond (Tayside)"
  },
  {
    "station_no": "535347",
    "station_name": "Almondbank at Main Street",
    "lat": 56.41717637,
    "lon": -3.516105507,
    "catchment_name": "Tay",
    "river_name": "Almond (Tayside)"
  },
  {
    "station_no": "14869",
    "station_name": "Almondell",
    "lat": 55.90181846,
    "lon": -3.463017734,
    "catchment_name": "Almond Group",
    "river_name": "Almond (Lothian)"
  },
  {
    "station_no": "234152",
    "station_name": "Alness",
    "lat": 57.69601068,
    "lon": -4.258760757,
    "catchment_name": "Conon Group",
    "river_name": "Alness"
  },
  {
    "station_no": "115500",
    "station_name": "Amlaird",
    "lat": 55.66964373,
    "lon": -4.413260863,
    "catchment_name": "Irvine and Ayr",
    "river_name": ""
  },
  {
    "station_no": "115501",
    "station_name": "Amod Farm",
    "lat": 55.35009103,
    "lon": -5.717857841,
    "catchment_name": "Kintyre Group",
    "river_name": ""
  },
  {
    "station_no": "115307",
    "station_name": "Anaheilt",
    "lat": 56.70184457,
    "lon": -5.57126135,
    "catchment_name": "---",
    "river_name": ""
  },
  {
    "station_no": "15002",
    "station_name": "Ancrum",
    "lat": 55.51244139,
    "lon": -2.580776051,
    "catchment_name": "Tweed",
    "river_name": "Ale Water"
  },
  {
    "station_no": "14888",
    "station_name": "Anie",
    "lat": 56.25788155,
    "lon": -4.285414699,
    "catchment_name": "Forth",
    "river_name": "Leny"
  },
  {
    "station_no": "336398",
    "station_name": "Annan (Creca)",
    "lat": 55.02782941,
    "lon": -3.222506029,
    "catchment_name": "---",
    "river_name": ""
  },
  {
    "station_no": "15198",
    "station_name": "Annfield",
    "lat": 56.06640057,
    "lon": -3.371633207,
    "catchment_name": "Firth of Forth Group",
    "river_name": ""
  },
  {
    "station_no": "234153",
    "station_name": "Apigill",
    "lat": 58.48007214,
    "lon": -4.207749187,
    "catchment_name": "Naver group",
    "river_name": "Naver"
  },
  {
    "station_no": "300350",
    "station_name": "Arabella Junction",
    "lat": 57.75688278,
    "lon": -4.00651316,
    "catchment_name": "---",
    "river_name": ""
  },
  {
    "station_no": "14922",
    "station_name": "Arbroath",
    "lat": 56.56723031,
    "lon": -2.588171626,
    "catchment_name": "Esk Group",
    "river_name": "Brothock Water"
  },
  {
    "station_no": "336675",
    "station_name": "ArbroathTidal",
    "lat": 56.55550327,
    "lon": -2.583060469,
    "catchment_name": "Esk Group",
    "river_name": "North Sea"
  },
  {
    "station_no": "234154",
    "station_name": "Arcan Spillway",
    "lat": 57.55332889,
    "lon": -4.550906092,
    "catchment_name": "Conon Group",
    "river_name": "Conon"
  },
  {
    "station_no": "602637",
    "station_name": "Ardachu LF BH6",
    "lat": -3.87578253049072,
    "lon": 58.0175636717473,
    "catchment_name": "---",
    "river_name": ""
  },
  {
    "station_no": "234155",
    "station_name": "Ardachy Bridge",
    "lat": 57.12952381,
    "lon": -4.678200965,
    "catchment_name": "Ness",
    "river_name": "Tarff"
  },
  {
    "station_no": "234157",
    "station_name": "Ariundle",
    "lat": 56.70722202,
    "lon": -5.556782552,
    "catchment_name": "Loch Sheil Group",
    "river_name": "Strontian"
  },
  {
    "station_no": "115506",
    "station_name": "Ashgrove",
    "lat": 55.66308049,
    "lon": -4.757486092,
    "catchment_name": "Irvine and Ayr",
    "river_name": ""
  },
  {
    "station_no": "372871",
    "station_name": "Athelstaneford",
    "lat": 55.9852479,
    "lon": -2.736326688,
    "catchment_name": "Tyne (Lothian)",
    "river_name": "Cogtail Burn"
  },
  {
    "station_no": "491811",
    "station_name": "Auchdergannach",
    "lat": 57.22063972,
    "lon": -3.651932222,
    "catchment_name": "Spey",
    "river_name": ""
  },
  {
    "station_no": "133060",
    "station_name": "Auchendrane",
    "lat": 55.40997977,
    "lon": -4.627054661,
    "catchment_name": "Doon Group",
    "river_name": "Doon"
  },
  {
    "station_no": "133061",
    "station_name": "Auchengeich",
    "lat": 55.91939055,
    "lon": -4.114140851,
    "catchment_name": "Clyde",
    "river_name": "Bothlin Burn"
  },
  {
    "station_no": "15163",
    "station_name": "Auchentroig",
    "lat": 56.11221933,
    "lon": -4.342412217,
    "catchment_name": "Forth",
    "river_name": ""
  },
  {
    "station_no": "14964",
    "station_name": "Auchinner",
    "lat": 56.31678388,
    "lon": -4.112254665,
    "catchment_name": "Earn",
    "river_name": "Allt Srath a Ghlinne"
  },
  {
    "station_no": "14952",
    "station_name": "Auchnafree",
    "lat": 56.47302976,
    "lon": -3.904678161,
    "catchment_name": "Tay",
    "river_name": "Almond (Tayside)"
  },
  {
    "station_no": "300348",
    "station_name": "Auldearn Junction",
    "lat": 57.58265875,
    "lon": -3.836662863,
    "catchment_name": "---",
    "river_name": ""
  },
  {
    "station_no": "234161",
    "station_name": "Avochie",
    "lat": 57.50564634,
    "lon": -2.782377895,
    "catchment_name": "Deveron Group",
    "river_name": "Deveron"
  },
  {
    "station_no": "322556",
    "station_name": "Avonbank",
    "lat": 55.66347112,
    "lon": -4.051617294,
    "catchment_name": "Clyde",
    "river_name": "Avon Water"
  },
  {
    "station_no": "15132",
    "station_name": "Ayton Castle",
    "lat": 55.84727645,
    "lon": -2.114611023,
    "catchment_name": "Tweed",
    "river_name": ""
  },
  {
    "station_no": "518147",
    "station_name": "Badbea",
    "lat": 57.86243941,
    "lon": -5.318746664,
    "catchment_name": "Laxford Group",
    "river_name": ""
  },
  {
    "station_no": "15103",
    "station_name": "Baddinsgill Reservoir",
    "lat": 55.7838821,
    "lon": -3.394584951,
    "catchment_name": "Tweed",
    "river_name": ""
  },
  {
    "station_no": "501947",
    "station_name": "Baintown Rain-gauge",
    "lat": 56.22101614,
    "lon": -3.042679056,
    "catchment_name": "Firth of Tay Group",
    "river_name": ""
  },
  {
    "station_no": "14947",
    "station_name": "Balbrogie",
    "lat": 56.57225831,
    "lon": -3.240802881,
    "catchment_name": "Tay",
    "river_name": "Isla (Tayside)"
  },
  {
    "station_no": "14894",
    "station_name": "Balfour Mains",
    "lat": 56.1847332,
    "lon": -3.08157055,
    "catchment_name": "Firth of Forth Group",
    "river_name": "Ore"
  },
  {
    "station_no": "517412",
    "station_name": "Balfron STW",
    "lat": 56.06523441,
    "lon": -4.333343318,
    "catchment_name": "Leven (Durnbartonshire)",
    "river_name": ""
  },
  {
    "station_no": "490985",
    "station_name": "Balgray RG",
    "lat": 55.73428872,
    "lon": -4.5878755,
    "catchment_name": "Clyde",
    "river_name": ""
  },
  {
    "station_no": "516803",
    "station_name": "Ballachraggan",
    "lat": 57.52824441,
    "lon": -3.451567365,
    "catchment_name": "Findhorn Group",
    "river_name": "Lossie"
  },
  {
    "station_no": "14937",
    "station_name": "Ballathie",
    "lat": 56.5144141,
    "lon": -3.386963945,
    "catchment_name": "Tay",
    "river_name": "Tay"
  },
  {
    "station_no": "115509",
    "station_name": "Ballindalloch Stables",
    "lat": 56.06811229,
    "lon": -4.344619383,
    "catchment_name": "---",
    "river_name": ""
  },
  {
    "station_no": "14938",
    "station_name": "Balmacneil",
    "lat": 56.63825013,
    "lon": -3.664198017,
    "catchment_name": "Tay",
    "river_name": "Tay"
  },
  {
    "station_no": "115202",
    "station_name": "Balmedie STW",
    "lat": 57.25007263,
    "lon": -2.0473803,
    "catchment_name": "Ythan Group",
    "river_name": ""
  },
  {
    "station_no": "14919",
    "station_name": "Balmossie",
    "lat": 56.48175497,
    "lon": -2.85166534,
    "catchment_name": "Firth of Tay Group",
    "river_name": "Dighty Water"
  },
  {
    "station_no": "234163",
    "station_name": "Balnaan",
    "lat": 57.30214571,
    "lon": -3.699157201,
    "catchment_name": "Spey",
    "river_name": "Dulnain"
  },
  {
    "station_no": "206846",
    "station_name": "Balnafoich",
    "lat": 57.38787077,
    "lon": -4.188250573,
    "catchment_name": "Findhorn Group",
    "river_name": "Nairn"
  },
  {
    "station_no": "133062",
    "station_name": "Balnowlart",
    "lat": 55.10717871,
    "lon": -4.968322113,
    "catchment_name": "Doon Group",
    "river_name": "Stinchar"
  },
  {
    "station_no": "374852",
    "station_name": "Baluniefield",
    "lat": 56.48264025,
    "lon": -2.905576117,
    "catchment_name": "Firth of Tay Group",
    "river_name": ""
  },
  {
    "station_no": "15065",
    "station_name": "Bankfoot",
    "lat": 56.50262276,
    "lon": -3.516362582,
    "catchment_name": "---",
    "river_name": ""
  },
  {
    "station_no": "14897",
    "station_name": "Bannockburn",
    "lat": 56.09528478,
    "lon": -3.911816854,
    "catchment_name": "Forth",
    "river_name": "Bannock Burn"
  },
  {
    "station_no": "460188",
    "station_name": "Barbush Farm BH",
    "lat": 55.03707178,
    "lon": -3.628736322,
    "catchment_name": "---",
    "river_name": ""
  },
  {
    "station_no": "133063",
    "station_name": "Barnaline Lodge",
    "lat": 56.27473893,
    "lon": -5.278048706,
    "catchment_name": "Awe and Etive",
    "river_name": "Avich"
  },
  {
    "station_no": "133142",
    "station_name": "Barsolus",
    "lat": 54.8658531,
    "lon": -4.951330607,
    "catchment_name": "Cree",
    "river_name": "Piltanton Burn"
  },
  {
    "station_no": "115512",
    "station_name": "Barwhillanty",
    "lat": 55.01443032,
    "lon": -3.99732547,
    "catchment_name": "---",
    "river_name": ""
  },
  {
    "station_no": "499809",
    "station_name": "Battledykes - Wardmill Farm",
    "lat": 56.67359266,
    "lon": -2.895547661,
    "catchment_name": "Esk Group",
    "river_name": ""
  },
  {
    "station_no": "133143",
    "station_name": "Beattock",
    "lat": 55.31167269,
    "lon": -3.456710814,
    "catchment_name": "Annan",
    "river_name": "Evan Water"
  },
  {
    "station_no": "327235",
    "station_name": "Beltmoss",
    "lat": 55.98678855,
    "lon": -4.056528766,
    "catchment_name": "Clyde",
    "river_name": ""
  },
  {
    "station_no": "511675",
    "station_name": "Berneray Tide Gauge",
    "lat": 57.714282,
    "lon": -7.169577693,
    "catchment_name": "Outer Hebrides",
    "river_name": "Sound of Harris"
  },
  {
    "station_no": "368536",
    "station_name": "Biggar Burn",
    "lat": 55.65035093,
    "lon": -3.543765278,
    "catchment_name": "Tweed",
    "river_name": ""
  },
  {
    "station_no": "320371",
    "station_name": "Birkie Hue",
    "lat": 58.16554218,
    "lon": -6.740713858,
    "catchment_name": "Outer Hebrides",
    "river_name": ""
  },
  {
    "station_no": "115516",
    "station_name": "Blackdyke Farm",
    "lat": 55.52935031,
    "lon": -4.326283061,
    "catchment_name": "Irvine and Ayr",
    "river_name": ""
  },
  {
    "station_no": "115203",
    "station_name": "Blackhills No 2",
    "lat": 57.61017023,
    "lon": -3.222796593,
    "catchment_name": "Findhorn Group",
    "river_name": ""
  },
  {
    "station_no": "335578",
    "station_name": "Blacklaw",
    "lat": 57.58092196,
    "lon": -2.60024157,
    "catchment_name": "Deveron Group",
    "river_name": ""
  },
  {
    "station_no": "15060",
    "station_name": "Blair Castle No 2",
    "lat": 56.77396086,
    "lon": -3.85889024,
    "catchment_name": "---",
    "river_name": ""
  },
  {
    "station_no": "115204",
    "station_name": "Blairdaff",
    "lat": 57.24844532,
    "lon": -2.505220497,
    "catchment_name": "---",
    "river_name": ""
  },
  {
    "station_no": "15063",
    "station_name": "Blairgowrie",
    "lat": 56.60400027,
    "lon": -3.345448103,
    "catchment_name": "---",
    "river_name": ""
  },
  {
    "station_no": "133064",
    "station_name": "Blairston",
    "lat": 55.79734306,
    "lon": -4.068305537,
    "catchment_name": "Clyde",
    "river_name": "Clyde"
  },
  {
    "station_no": "15116",
    "station_name": "Blythe",
    "lat": 55.7374816,
    "lon": -2.662263534,
    "catchment_name": "Tweed",
    "river_name": ""
  },
  {
    "station_no": "234167",
    "station_name": "Boat o  Brig",
    "lat": 57.55104115,
    "lon": -3.140387991,
    "catchment_name": "Spey",
    "river_name": "Spey"
  },
  {
    "station_no": "234168",
    "station_name": "Boat of Garten",
    "lat": 57.25078305,
    "lon": -3.746867237,
    "catchment_name": "Spey",
    "river_name": "Spey"
  },
  {
    "station_no": "115206",
    "station_name": "Bogmore",
    "lat": 57.00332694,
    "lon": -2.648213352,
    "catchment_name": "---",
    "river_name": ""
  },
  {
    "station_no": "115207",
    "station_name": "Bogmuchals",
    "lat": 57.6130103,
    "lon": -2.7762484,
    "catchment_name": "---",
    "river_name": ""
  },
  {
    "station_no": "533744",
    "station_name": "Boleside",
    "lat": 55.59164323,
    "lon": -2.798878774,
    "catchment_name": "Tweed",
    "river_name": "Tweed"
  },
  {
    "station_no": "14885",
    "station_name": "Bonnybridge",
    "lat": 56.00182143,
    "lon": -3.886990553,
    "catchment_name": "Firth of Forth Group",
    "river_name": "Bonny Water"
  },
  {
    "station_no": "115518",
    "station_name": "Boreland",
    "lat": 55.20254702,
    "lon": -3.320073284,
    "catchment_name": "Annan",
    "river_name": ""
  },
  {
    "station_no": "234334",
    "station_name": "Borgie Bridge",
    "lat": 58.49740038,
    "lon": -4.279784356,
    "catchment_name": "Naver group",
    "river_name": "Borgie"
  },
  {
    "station_no": "101227",
    "station_name": "Bow Burn Raingauge",
    "lat": 55.44068058,
    "lon": -4.49863386,
    "catchment_name": "Irvine and Ayr",
    "river_name": ""
  },
  {
    "station_no": "15161",
    "station_name": "Braco (Dunduff)",
    "lat": 56.28192154,
    "lon": -3.904225732,
    "catchment_name": "Forth",
    "river_name": ""
  },
  {
    "station_no": "115315",
    "station_name": "Braeroy Lodge",
    "lat": 56.98511362,
    "lon": -4.738585589,
    "catchment_name": "Lochy (Invernesshire)",
    "river_name": ""
  },
  {
    "station_no": "133065",
    "station_name": "Braevallich",
    "lat": 56.21639554,
    "lon": -5.296246434,
    "catchment_name": "Awe and Etive",
    "river_name": "Abhainn a Bhealaich"
  },
  {
    "station_no": "133144",
    "station_name": "Braidlie",
    "lat": 55.26142915,
    "lon": -2.824951121,
    "catchment_name": "Esk (Dumfriesshire)",
    "river_name": "Hermitage Water"
  },
  {
    "station_no": "14917",
    "station_name": "Brechin",
    "lat": 56.72692276,
    "lon": -2.655900389,
    "catchment_name": "Esk Group",
    "river_name": "South Esk (Angus)"
  },
  {
    "station_no": "15058",
    "station_name": "Brechin STW",
    "lat": 56.72323226,
    "lon": -2.624054251,
    "catchment_name": "---",
    "river_name": ""
  },
  {
    "station_no": "14889",
    "station_name": "Bridge of Allan",
    "lat": 56.15901974,
    "lon": -3.956367475,
    "catchment_name": "Forth",
    "river_name": "Allan Water"
  },
  {
    "station_no": "14971",
    "station_name": "Bridge of Earn",
    "lat": 56.3497307,
    "lon": -3.402582026,
    "catchment_name": "Earn",
    "river_name": "Earn"
  },
  {
    "station_no": "234172",
    "station_name": "Bridge of Oich",
    "lat": 57.09229844,
    "lon": -4.74425988,
    "catchment_name": "Ness",
    "river_name": "Loch Oich"
  },
  {
    "station_no": "14887",
    "station_name": "Bridge of Teith",
    "lat": 56.18573476,
    "lon": -4.055574525,
    "catchment_name": "Forth",
    "river_name": "Teith"
  },
  {
    "station_no": "133145",
    "station_name": "Bridgemuir",
    "lat": 55.14632871,
    "lon": -3.428225271,
    "catchment_name": "Annan",
    "river_name": "Kinnel Water"
  },
  {
    "station_no": "133066",
    "station_name": "Bridgend",
    "lat": 55.94910632,
    "lon": -4.129006198,
    "catchment_name": "Clyde",
    "river_name": "Kelvin"
  },
  {
    "station_no": "321630",
    "station_name": "Brighouse Burn",
    "lat": 54.78864247,
    "lon": -4.117404209,
    "catchment_name": "Cree",
    "river_name": "Brighouse Burn"
  },
  {
    "station_no": "115521",
    "station_name": "Brigton",
    "lat": 55.03779638,
    "lon": -4.566314357,
    "catchment_name": "Cree",
    "river_name": ""
  },
  {
    "station_no": "335609",
    "station_name": "Broadside",
    "lat": 56.02806207,
    "lon": -3.978158502,
    "catchment_name": "Firth of Forth Group",
    "river_name": ""
  },
  {
    "station_no": "14987",
    "station_name": "Brockhoperig",
    "lat": 55.4061286,
    "lon": -3.211513384,
    "catchment_name": "Tweed",
    "river_name": "Ettrick Water"
  },
  {
    "station_no": "234173",
    "station_name": "Brodie",
    "lat": 57.59244808,
    "lon": -3.708878989,
    "catchment_name": "Findhorn Group",
    "river_name": "Muckle Burn"
  },
  {
    "station_no": "15029",
    "station_name": "Broxmouth",
    "lat": 55.99077195,
    "lon": -2.48676507,
    "catchment_name": "Tyne (Lothian)",
    "river_name": "Brox Burn (East Lothian)"
  },
  {
    "station_no": "234174",
    "station_name": "Bruachrobie",
    "lat": 58.0105569,
    "lon": -3.877565412,
    "catchment_name": "Helmsdale Group",
    "river_name": "Brora"
  },
  {
    "station_no": "133146",
    "station_name": "Brydekirk",
    "lat": 55.02165102,
    "lon": -3.267726412,
    "catchment_name": "Annan",
    "river_name": "Annan"
  },
  {
    "station_no": "116009",
    "station_name": "Buckie",
    "lat": 57.68078962,
    "lon": -2.954125879,
    "catchment_name": "Deveron Group",
    "river_name": "Moray Firth"
  },
  {
    "station_no": "115523",
    "station_name": "Burnfoot (Hawknest)",
    "lat": 55.66513433,
    "lon": -3.895712474,
    "catchment_name": "Clyde",
    "river_name": ""
  },
  {
    "station_no": "368492",
    "station_name": "Burrelton Burn",
    "lat": 56.5211801,
    "lon": -3.294527587,
    "catchment_name": "Forth",
    "river_name": "Burrelton Burn"
  },
  {
    "station_no": "335612",
    "station_name": "Bush",
    "lat": 55.86190844,
    "lon": -3.206554074,
    "catchment_name": "Almond Group",
    "river_name": ""
  },
  {
    "station_no": "234176",
    "station_name": "Cabrach",
    "lat": 57.34816,
    "lon": -3.034565786,
    "catchment_name": "Deveron Group",
    "river_name": "Allt Deveron"
  },
  {
    "station_no": "14977",
    "station_name": "Cademuir",
    "lat": 55.61926614,
    "lon": -3.244232636,
    "catchment_name": "Tweed",
    "river_name": "Manor Water"
  },
  {
    "station_no": "523676",
    "station_name": "Cairngorm Raingauge and Snow Scale",
    "lat": 57.127702,
    "lon": -3.662955858,
    "catchment_name": "Spey",
    "river_name": ""
  },
  {
    "station_no": "115526",
    "station_name": "Caldercruix STW",
    "lat": 55.88933558,
    "lon": -3.904553259,
    "catchment_name": "Clyde",
    "river_name": ""
  },
  {
    "station_no": "133069",
    "station_name": "Calderpark",
    "lat": 55.83754619,
    "lon": -4.10777909,
    "catchment_name": "Clyde",
    "river_name": "North Calder Water"
  },
  {
    "station_no": "14911",
    "station_name": "Callander",
    "lat": 56.2422863,
    "lon": -4.214924958,
    "catchment_name": "Forth",
    "river_name": "Teith"
  },
  {
    "station_no": "338380",
    "station_name": "Cambo Sands",
    "lat": 56.3008799,
    "lon": -2.650067453,
    "catchment_name": "Firth of Tay Group",
    "river_name": ""
  },
  {
    "station_no": "234178",
    "station_name": "Camisky",
    "lat": 56.87846936,
    "lon": -5.046521526,
    "catchment_name": "Lochy (Invernesshire)",
    "river_name": "Lochy (Lochaber)"
  },
  {
    "station_no": "490984",
    "station_name": "Camphill WTW Raingauge",
    "lat": 55.75032761,
    "lon": -4.74461262,
    "catchment_name": "Clyde",
    "river_name": ""
  },
  {
    "station_no": "14950",
    "station_name": "Camusvrachan",
    "lat": 56.60039168,
    "lon": -4.250199477,
    "catchment_name": "Tay",
    "river_name": "Lyon"
  },
  {
    "station_no": "133070",
    "station_name": "Candermill",
    "lat": 55.70088757,
    "lon": -3.966908369,
    "catchment_name": "Clyde",
    "river_name": "Cander Water"
  },
  {
    "station_no": "133148",
    "station_name": "Canonbie",
    "lat": 55.0662645,
    "lon": -2.946231369,
    "catchment_name": "Esk (Dumfriesshire)",
    "river_name": "Esk (Solway)"
  },
  {
    "station_no": "306455",
    "station_name": "Canonbie Raingauge",
    "lat": 55.07786221,
    "lon": -2.942088127,
    "catchment_name": "Esk (Dumfriesshire)",
    "river_name": ""
  },
  {
    "station_no": "133149",
    "station_name": "Capenoch",
    "lat": 55.22736754,
    "lon": -3.817044727,
    "catchment_name": "Nith",
    "river_name": "Scar Water"
  },
  {
    "station_no": "576753",
    "station_name": "Capenoch Raingauge",
    "lat": 55.22666817,
    "lon": -3.816934219,
    "catchment_name": "Nith",
    "river_name": ""
  },
  {
    "station_no": "14936",
    "station_name": "Caputh",
    "lat": 56.53919737,
    "lon": -3.492942476,
    "catchment_name": "Tay",
    "river_name": "Tay"
  },
  {
    "station_no": "348952",
    "station_name": "Carmyllie War Memorial Obs BH",
    "lat": 56.57474711,
    "lon": -2.729419511,
    "catchment_name": "---",
    "river_name": ""
  },
  {
    "station_no": "577951",
    "station_name": "Carmyllie-Hume Farm",
    "lat": 56.57464969,
    "lon": -2.741331877,
    "catchment_name": "Esk Group",
    "river_name": ""
  },
  {
    "station_no": "320374",
    "station_name": "Carron (Stonehaven)",
    "lat": 56.96221164,
    "lon": -2.216208291,
    "catchment_name": "Esk Group",
    "river_name": "Carron Water"
  },
  {
    "station_no": "565197",
    "station_name": "Carron upstream (Stonehaven)",
    "lat": 56.96155865,
    "lon": -2.219756428,
    "catchment_name": "Esk Group",
    "river_name": "Carron"
  },
  {
    "station_no": "116042",
    "station_name": "Castle Kennedy",
    "lat": 54.90675279,
    "lon": -4.944931414,
    "catchment_name": "Cree",
    "river_name": ""
  },
  {
    "station_no": "506142",
    "station_name": "Castle O'er",
    "lat": 55.22290808,
    "lon": -3.180030664,
    "catchment_name": "Esk (Dumfriesshire)",
    "river_name": "White Esk"
  },
  {
    "station_no": "14908",
    "station_name": "Castlehill Reservoir",
    "lat": 56.2092222,
    "lon": -3.60889654,
    "catchment_name": "Forth",
    "river_name": "Devon"
  },
  {
    "station_no": "133071",
    "station_name": "Catrine",
    "lat": 55.50462561,
    "lon": -4.336590474,
    "catchment_name": "Irvine and Ayr",
    "river_name": "Ayr"
  },
  {
    "station_no": "116013",
    "station_name": "Caulkerbush",
    "lat": 54.89874408,
    "lon": -3.672536736,
    "catchment_name": "Dee (Galloway)",
    "river_name": "Southwick Burn"
  },
  {
    "station_no": "507619",
    "station_name": "Causer Crossroads",
    "lat": 57.2649992764115,
    "lon": -3.64138230098117,
    "catchment_name": "---",
    "river_name": ""
  },
  {
    "station_no": "541851",
    "station_name": "Chapeltoun Gauging Station",
    "lat": 55.6639264,
    "lon": -4.554890682,
    "catchment_name": "Irvine and Ayr",
    "river_name": "Annick Water"
  },
  {
    "station_no": "234183",
    "station_name": "Charr",
    "lat": 56.94084906,
    "lon": -2.619402267,
    "catchment_name": "Dee (Aberdeenshire)",
    "river_name": "Water of Dye"
  },
  {
    "station_no": "15004",
    "station_name": "Chesters",
    "lat": 55.37862961,
    "lon": -2.589607681,
    "catchment_name": "Tweed",
    "river_name": "Jed Water"
  },
  {
    "station_no": "335574",
    "station_name": "Cheyne",
    "lat": 56.97482596,
    "lon": -2.266470239,
    "catchment_name": "Esk Group",
    "river_name": ""
  },
  {
    "station_no": "115534",
    "station_name": "Clachan-Seil",
    "lat": 56.30375755,
    "lon": -5.601429727,
    "catchment_name": "Add Group",
    "river_name": ""
  },
  {
    "station_no": "234184",
    "station_name": "Clachnaharry",
    "lat": 57.4905025,
    "lon": -4.263020458,
    "catchment_name": "Ness",
    "river_name": "Beauly Firth"
  },
  {
    "station_no": "116011",
    "station_name": "Claggan",
    "lat": 56.82151065,
    "lon": -5.088839432,
    "catchment_name": "Loch Linnhe Group",
    "river_name": "Nevis"
  },
  {
    "station_no": "499810",
    "station_name": "Cleuchhead",
    "lat": 56.94774412,
    "lon": -2.388756894,
    "catchment_name": "Esk Group",
    "river_name": "Carron"
  },
  {
    "station_no": "336370",
    "station_name": "Cluanie Inn",
    "lat": 57.15628843,
    "lon": -5.181590945,
    "catchment_name": "Ness",
    "river_name": ""
  },
  {
    "station_no": "115318",
    "station_name": "Coignafearn",
    "lat": 57.23285188,
    "lon": -4.139289943,
    "catchment_name": "Findhorn Group",
    "river_name": ""
  },
  {
    "station_no": "115319",
    "station_name": "Coille Mhorgil",
    "lat": 57.0643694,
    "lon": -5.134923813,
    "catchment_name": "Ness",
    "river_name": ""
  },
  {
    "station_no": "15013",
    "station_name": "Coldstream",
    "lat": 55.64977661,
    "lon": -2.256597919,
    "catchment_name": "Tweed",
    "river_name": "Leet Water"
  },
  {
    "station_no": "15126",
    "station_name": "Coldstream Sewage Works",
    "lat": 55.66440091,
    "lon": -2.226507154,
    "catchment_name": "---",
    "river_name": ""
  },
  {
    "station_no": "14880",
    "station_name": "Colinton",
    "lat": 55.90575791,
    "lon": -3.262141625,
    "catchment_name": "Almond Group",
    "river_name": "Water of Leith"
  },
  {
    "station_no": "14921",
    "station_name": "Colliston",
    "lat": 56.61000991,
    "lon": -2.637841019,
    "catchment_name": "Esk Group",
    "river_name": "Colliston Burn"
  },
  {
    "station_no": "552791",
    "station_name": "Comer Farm",
    "lat": 56.20150723,
    "lon": -4.60131038,
    "catchment_name": "Forth",
    "river_name": ""
  },
  {
    "station_no": "525510",
    "station_name": "Comiston Rain Gauge",
    "lat": 55.91019401,
    "lon": -3.21598827,
    "catchment_name": "Almond Group",
    "river_name": ""
  },
  {
    "station_no": "14951",
    "station_name": "Comrie Bridge",
    "lat": 56.61422921,
    "lon": -3.980864711,
    "catchment_name": "Tay",
    "river_name": "Lyon"
  },
  {
    "station_no": "133072",
    "station_name": "Condorrat",
    "lat": 55.92951508,
    "lon": -4.019603678,
    "catchment_name": "Clyde",
    "river_name": "Luggie Water"
  },
  {
    "station_no": "234185",
    "station_name": "Conon Bridge",
    "lat": 57.5694305,
    "lon": -4.440534753,
    "catchment_name": "Conon Group",
    "river_name": "Conon"
  },
  {
    "station_no": "17064",
    "station_name": "Cookston Deep",
    "lat": 56.61914099,
    "lon": -3.077765295,
    "catchment_name": "---",
    "river_name": ""
  },
  {
    "station_no": "234187",
    "station_name": "Corpach",
    "lat": 56.84179895,
    "lon": -5.123822546,
    "catchment_name": "Lochy (Invernesshire)",
    "river_name": "Loch Linnhe"
  },
  {
    "station_no": "472872",
    "station_name": "Corrievuic",
    "lat": 57.51349507,
    "lon": -5.001875565,
    "catchment_name": "Conon Group",
    "river_name": "Meig"
  },
  {
    "station_no": "115322",
    "station_name": "Corrimony",
    "lat": 57.33501743,
    "lon": -4.699729622,
    "catchment_name": "Ness",
    "river_name": ""
  },
  {
    "station_no": "336434",
    "station_name": "Corsock",
    "lat": 55.05876816,
    "lon": -3.945715778,
    "catchment_name": "Dee (Galloway)",
    "river_name": ""
  },
  {
    "station_no": "301400",
    "station_name": "Coulter Reservoir",
    "lat": 55.53306378,
    "lon": -3.52983359,
    "catchment_name": "Clyde",
    "river_name": ""
  },
  {
    "station_no": "975367",
    "station_name": "Coupar Angus, Gilleroo",
    "lat": 56.54878475,
    "lon": -3.27069639,
    "catchment_name": "---",
    "river_name": ""
  },
  {
    "station_no": "5981",
    "station_name": "Cowbridge",
    "lat": 55.89709776,
    "lon": -3.05890347,
    "catchment_name": "Almond Group",
    "river_name": "South Esk (Lothian)"
  },
  {
    "station_no": "14983",
    "station_name": "Craig Douglas",
    "lat": 55.5086,
    "lon": -3.1265,
    "catchment_name": "Tweed",
    "river_name": "Yarrow Water"
  },
  {
    "station_no": "234189",
    "station_name": "Craigard",
    "lat": 57.06557358,
    "lon": -4.822135914,
    "catchment_name": "Ness",
    "river_name": "Garry (Ness)"
  },
  {
    "station_no": "115541",
    "station_name": "Craigdarroch",
    "lat": 55.196659,
    "lon": -3.981943267,
    "catchment_name": "Nith",
    "river_name": ""
  },
  {
    "station_no": "133073",
    "station_name": "Craigend",
    "lat": 55.86450249,
    "lon": -4.534803989,
    "catchment_name": "Clyde",
    "river_name": "Gryfe"
  },
  {
    "station_no": "356326",
    "station_name": "Craigendarroch",
    "lat": 56.56990238,
    "lon": -5.749845756,
    "catchment_name": "Loch Sheil Group",
    "river_name": "Aline"
  },
  {
    "station_no": "513003",
    "station_name": "Craigenlee Croft Raingauge",
    "lat": 54.86294592,
    "lon": -5.075279664,
    "catchment_name": "Cree",
    "river_name": ""
  },
  {
    "station_no": "4638",
    "station_name": "Craigforth",
    "lat": 56.1360998,
    "lon": -3.970218251,
    "catchment_name": "Forth",
    "river_name": "Forth"
  },
  {
    "station_no": "14956",
    "station_name": "Craighall (Perth)",
    "lat": 56.60905796,
    "lon": -3.347175751,
    "catchment_name": "Tay",
    "river_name": "Ericht"
  },
  {
    "station_no": "14867",
    "station_name": "Craigiehall",
    "lat": 55.96313343,
    "lon": -3.338532726,
    "catchment_name": "Almond Group",
    "river_name": "Almond (Lothian)"
  },
  {
    "station_no": "7926",
    "station_name": "Craigmill Burn Observation Borehole",
    "lat": 56.51364342,
    "lon": -2.69215367,
    "catchment_name": "---",
    "river_name": ""
  },
  {
    "station_no": "234190",
    "station_name": "Creed Bridge",
    "lat": 58.20454028,
    "lon": -6.424227928,
    "catchment_name": "Outer Hebrides",
    "river_name": "Creed"
  },
  {
    "station_no": "15224",
    "station_name": "Crichton",
    "lat": 55.84509063,
    "lon": -2.988655721,
    "catchment_name": "Tyne (Lothian)",
    "river_name": ""
  },
  {
    "station_no": "38326176",
    "station_name": "Crichton Mains",
    "lat": 55.845089,
    "lon": -2.9865955,
    "catchment_name": "---",
    "river_name": ""
  },
  {
    "station_no": "520119",
    "station_name": "Crieff",
    "lat": 56.36081905,
    "lon": -3.847275886,
    "catchment_name": "Earn",
    "river_name": "Earn"
  },
  {
    "station_no": "533741",
    "station_name": "Crimmonmogate",
    "lat": 57.61852769,
    "lon": -1.928524204,
    "catchment_name": "Ythan Group",
    "river_name": "Savoch Burn"
  },
  {
    "station_no": "492364",
    "station_name": "Cromarty",
    "lat": 57.6828141,
    "lon": -4.038547427,
    "catchment_name": "Conon Group",
    "river_name": "Cromarty Firth"
  },
  {
    "station_no": "348956",
    "station_name": "Crombie Country Park Obs BH",
    "lat": 56.56228908,
    "lon": -2.777830007,
    "catchment_name": "---",
    "river_name": ""
  },
  {
    "station_no": "323575",
    "station_name": "Crows Nest LF BH W10",
    "lat": 57.066862279911,
    "lon": -2.51134136683946,
    "catchment_name": "---",
    "river_name": ""
  },
  {
    "station_no": "234191",
    "station_name": "Culfork",
    "lat": 57.18022427,
    "lon": -3.11016313,
    "catchment_name": "Don (Aberdeenshire)",
    "river_name": "Don"
  },
  {
    "station_no": "234192",
    "station_name": "Cullen",
    "lat": 57.68712295,
    "lon": -2.83323079,
    "catchment_name": "Deveron Group",
    "river_name": "Burn of Deskford"
  },
  {
    "station_no": "517599",
    "station_name": "Cullochfairn raingauge",
    "lat": 55.4554491546369,
    "lon": -3.9209535143948,
    "catchment_name": "---",
    "river_name": ""
  },
  {
    "station_no": "498341",
    "station_name": "Culloden Battlefield",
    "lat": 57.47676464,
    "lon": -4.09126842,
    "catchment_name": "Ness",
    "river_name": ""
  },
  {
    "station_no": "14965",
    "station_name": "Cultybraggan",
    "lat": 56.35972783,
    "lon": -4.001442447,
    "catchment_name": "Earn",
    "river_name": "Ruchill Water"
  },
  {
    "station_no": "115544",
    "station_name": "Culzean Castle",
    "lat": 55.35068095,
    "lon": -4.791520726,
    "catchment_name": "Doon Group",
    "river_name": ""
  },
  {
    "station_no": "538826",
    "station_name": "Cunninghamhead",
    "lat": 55.64794589,
    "lon": -4.584018331,
    "catchment_name": "Irvine and Ayr",
    "river_name": "Annick Water"
  },
  {
    "station_no": "133151",
    "station_name": "Dalbeattie",
    "lat": 54.92987759,
    "lon": -3.840969588,
    "catchment_name": "Dee (Galloway)",
    "river_name": "Urr Water"
  },
  {
    "station_no": "115546",
    "station_name": "Dalbeattie STW",
    "lat": 54.92152642,
    "lon": -3.821987578,
    "catchment_name": "Dee (Galloway)",
    "river_name": ""
  },
  {
    "station_no": "538510",
    "station_name": "Dalblair",
    "lat": 55.44485443,
    "lon": -4.151929697,
    "catchment_name": "Irvine and Ayr",
    "river_name": ""
  },
  {
    "station_no": "133074",
    "station_name": "Daldowie",
    "lat": 55.82998694,
    "lon": -4.121948322,
    "catchment_name": "Clyde",
    "river_name": "Clyde"
  },
  {
    "station_no": "327232",
    "station_name": "Daldowie STW",
    "lat": 55.83262494,
    "lon": -4.122714806,
    "catchment_name": "Clyde",
    "river_name": ""
  },
  {
    "station_no": "133152",
    "station_name": "Dalgig",
    "lat": 55.38782272,
    "lon": -4.277163013,
    "catchment_name": "Nith",
    "river_name": "Nith"
  },
  {
    "station_no": "14967",
    "station_name": "Dalginross",
    "lat": 56.37511953,
    "lon": -3.978605821,
    "catchment_name": "Earn",
    "river_name": "Earn"
  },
  {
    "station_no": "14925",
    "station_name": "Dalhousie Bridge",
    "lat": 56.8021744,
    "lon": -2.67047775,
    "catchment_name": "Esk Group",
    "river_name": "West Water"
  },
  {
    "station_no": "341344",
    "station_name": "Dall Rannoch No2",
    "lat": 56.67767747,
    "lon": -4.302183742,
    "catchment_name": "---",
    "river_name": ""
  },
  {
    "station_no": "205724",
    "station_name": "Dallachy No 2",
    "lat": 57.66404417,
    "lon": -3.071018416,
    "catchment_name": "Spey",
    "river_name": ""
  },
  {
    "station_no": "327234",
    "station_name": "Dalmarnock STW",
    "lat": 55.8374507,
    "lon": -4.216965486,
    "catchment_name": "Clyde",
    "river_name": ""
  },
  {
    "station_no": "14873",
    "station_name": "Dalmore",
    "lat": 55.84190258,
    "lon": -3.195905294,
    "catchment_name": "Almond Group",
    "river_name": "North Esk (Lothian)"
  },
  {
    "station_no": "14960",
    "station_name": "Dalnamein",
    "lat": 56.79925858,
    "lon": -4.053453634,
    "catchment_name": "Tay",
    "river_name": "Garry (Tayside)"
  },
  {
    "station_no": "116020",
    "station_name": "Dalry",
    "lat": 55.70198453,
    "lon": -4.716787117,
    "catchment_name": "Irvine and Ayr",
    "river_name": "Garnock"
  },
  {
    "station_no": "115327",
    "station_name": "Dalvina",
    "lat": 58.36488646,
    "lon": -4.230503452,
    "catchment_name": "Naver group",
    "river_name": ""
  },
  {
    "station_no": "302120",
    "station_name": "Dalwhinnie",
    "lat": 56.94069555,
    "lon": -4.238639574,
    "catchment_name": "Spey",
    "river_name": ""
  },
  {
    "station_no": "14912",
    "station_name": "Damleys Cottage",
    "lat": 56.22128534,
    "lon": -3.361631179,
    "catchment_name": "Firth of Forth Group",
    "river_name": "Greens Burn"
  },
  {
    "station_no": "133153",
    "station_name": "Dargall Lane",
    "lat": 55.0785507,
    "lon": -4.428445527,
    "catchment_name": "Dee (Galloway)",
    "river_name": "Dargall Lane"
  },
  {
    "station_no": "115550",
    "station_name": "Darvel Raingauge",
    "lat": 55.61477498,
    "lon": -4.284064756,
    "catchment_name": "---",
    "river_name": ""
  },
  {
    "station_no": "14946",
    "station_name": "Dean Bridge",
    "lat": 56.5988796,
    "lon": -3.153071161,
    "catchment_name": "Tay",
    "river_name": "Dean Water"
  },
  {
    "station_no": "341338",
    "station_name": "Deanston RG",
    "lat": 56.19223931,
    "lon": -4.077181451,
    "catchment_name": "Forth",
    "river_name": ""
  },
  {
    "station_no": "14986",
    "station_name": "Deephope",
    "lat": 55.41241422,
    "lon": -3.141967218,
    "catchment_name": "Tweed",
    "river_name": "Tima Water"
  },
  {
    "station_no": "365223",
    "station_name": "Deerdykes Wood Deep Bedrock Borehole",
    "lat": 57.39375416,
    "lon": -2.200145532,
    "catchment_name": "---",
    "river_name": ""
  },
  {
    "station_no": "365222",
    "station_name": "Deerdykes Wood Shallow Bedrock BH",
    "lat": 57.3937898,
    "lon": -2.200328735,
    "catchment_name": "---",
    "river_name": ""
  },
  {
    "station_no": "336852",
    "station_name": "Delgaty",
    "lat": 57.54745151,
    "lon": -2.401307706,
    "catchment_name": "---",
    "river_name": ""
  },
  {
    "station_no": "234198",
    "station_name": "Delnashaugh",
    "lat": 57.39970792,
    "lon": -3.357845061,
    "catchment_name": "Spey",
    "river_name": "Avon (Spey)"
  },
  {
    "station_no": "454765",
    "station_name": "Derry Lodge",
    "lat": 57.02065155,
    "lon": -3.58738853,
    "catchment_name": "Dee (Aberdeenshire)",
    "river_name": ""
  },
  {
    "station_no": "335582",
    "station_name": "Deskry Shiel",
    "lat": 57.18037959,
    "lon": -2.983867766,
    "catchment_name": "Don (Aberdeenshire)",
    "river_name": ""
  },
  {
    "station_no": "115329",
    "station_name": "Dingwall",
    "lat": 57.59992025,
    "lon": -4.446997097,
    "catchment_name": "Conon Group",
    "river_name": ""
  },
  {
    "station_no": "234330",
    "station_name": "Dionard",
    "lat": 58.49807306,
    "lon": -4.821196451,
    "catchment_name": "Naver group",
    "river_name": "Dionard"
  },
  {
    "station_no": "133077",
    "station_name": "Dippen",
    "lat": 55.58274848,
    "lon": -5.496523588,
    "catchment_name": "Kintyre Group",
    "river_name": "Carradale Water"
  },
  {
    "station_no": "115217",
    "station_name": "Dipple",
    "lat": 57.61125291,
    "lon": -3.115476523,
    "catchment_name": "Spey",
    "river_name": ""
  },
  {
    "station_no": "336517",
    "station_name": "Dipple G",
    "lat": 57.61186846,
    "lon": -3.121035659,
    "catchment_name": "---",
    "river_name": ""
  },
  {
    "station_no": "234200",
    "station_name": "Diriebught House",
    "lat": 57.47804173,
    "lon": -4.207153032,
    "catchment_name": "Ness",
    "river_name": "Mill Burn"
  },
  {
    "station_no": "115554",
    "station_name": "Doonholm",
    "lat": 55.42359077,
    "lon": -4.626552148,
    "catchment_name": "---",
    "river_name": ""
  },
  {
    "station_no": "234202",
    "station_name": "Dosmucheran",
    "lat": 57.59587318,
    "lon": -5.005770119,
    "catchment_name": "Conon Group",
    "river_name": "Bran"
  },
  {
    "station_no": "133183",
    "station_name": "Dow Craig",
    "lat": 55.37721095,
    "lon": -4.306229017,
    "catchment_name": "Nith",
    "river_name": "Beoch Lane"
  },
  {
    "station_no": "133078",
    "station_name": "Dreghorn",
    "lat": 55.61141199,
    "lon": -4.619377401,
    "catchment_name": "Irvine and Ayr",
    "river_name": "Annick Water"
  },
  {
    "station_no": "464646",
    "station_name": "Drum",
    "lat": 56.18484641,
    "lon": -3.532323684,
    "catchment_name": "Firth of Forth Group",
    "river_name": ""
  },
  {
    "station_no": "115556",
    "station_name": "Drumgrain",
    "lat": 55.81263002,
    "lon": -4.299507819,
    "catchment_name": "---",
    "river_name": ""
  },
  {
    "station_no": "378644",
    "station_name": "Drumine BH2 Brackley Junction West",
    "lat": 57.53996233,
    "lon": -4.012984897,
    "catchment_name": "---",
    "river_name": ""
  },
  {
    "station_no": "115557",
    "station_name": "Drumjohn",
    "lat": 55.24992466,
    "lon": -4.32205779,
    "catchment_name": "Dee (Galloway)",
    "river_name": ""
  },
  {
    "station_no": "133154",
    "station_name": "Drumlanrig",
    "lat": 55.27462204,
    "lon": -3.799524299,
    "catchment_name": "Nith",
    "river_name": "Nith"
  },
  {
    "station_no": "377134",
    "station_name": "Drummore of Cantray",
    "lat": 57.48325079,
    "lon": -4.006176025,
    "catchment_name": "Findhorn Group",
    "river_name": ""
  },
  {
    "station_no": "133080",
    "station_name": "Dryfield",
    "lat": 55.93891825,
    "lon": -4.182216743,
    "catchment_name": "Clyde",
    "river_name": "Kelvin"
  },
  {
    "station_no": "14904",
    "station_name": "Duchray",
    "lat": 56.15649685,
    "lon": -4.468109175,
    "catchment_name": "Forth",
    "river_name": "Loch Ard Burn"
  },
  {
    "station_no": "554833",
    "station_name": "Duchray Water",
    "lat": 56.19275854,
    "lon": -4.564061145,
    "catchment_name": "Forth",
    "river_name": "Duchray Water"
  },
  {
    "station_no": "15216",
    "station_name": "Dunbar",
    "lat": 56.00371307,
    "lon": -2.52752897,
    "catchment_name": "Tyne (Lothian)",
    "river_name": ""
  },
  {
    "station_no": "523237",
    "station_name": "Dunblane Raingauge",
    "lat": 56.1879233406661,
    "lon": -3.97480791123526,
    "catchment_name": "---",
    "river_name": ""
  },
  {
    "station_no": "459910",
    "station_name": "Duncow Deep Obs BH Dumfries",
    "lat": 55.13399663,
    "lon": -3.626265673,
    "catchment_name": "---",
    "river_name": ""
  },
  {
    "station_no": "459909",
    "station_name": "Duncow Shallow Obs BH",
    "lat": 55.13399663,
    "lon": -3.626265673,
    "catchment_name": "---",
    "river_name": ""
  },
  {
    "station_no": "530175",
    "station_name": "Dundreggan Rain Gauge",
    "lat": 57.19161541,
    "lon": -4.767634199,
    "catchment_name": "Ness",
    "river_name": ""
  },
  {
    "station_no": "115220",
    "station_name": "Dunecht House",
    "lat": 57.15982303,
    "lon": -2.413150255,
    "catchment_name": "---",
    "river_name": ""
  },
  {
    "station_no": "15208",
    "station_name": "Dunglass",
    "lat": 55.94267446,
    "lon": -2.38288136,
    "catchment_name": "Tyne (Lothian)",
    "river_name": ""
  },
  {
    "station_no": "115558",
    "station_name": "Dungrianach",
    "lat": 56.55231051,
    "lon": -5.319559821,
    "catchment_name": "---",
    "river_name": ""
  },
  {
    "station_no": "115559",
    "station_name": "Dunlop",
    "lat": 55.70737993,
    "lon": -4.528674906,
    "catchment_name": "Irvine and Ayr",
    "river_name": ""
  },
  {
    "station_no": "509196",
    "station_name": "Dunnottar Radio Station",
    "lat": 56.94652496,
    "lon": -2.21202446,
    "catchment_name": "Esk Group",
    "river_name": ""
  },
  {
    "station_no": "15180",
    "station_name": "Dunnswood STW (Cumbernauld)",
    "lat": 55.97221885,
    "lon": -3.954505606,
    "catchment_name": "Firth of Forth Group",
    "river_name": ""
  },
  {
    "station_no": "234206",
    "station_name": "Dunphail",
    "lat": 57.51151031,
    "lon": -3.661788536,
    "catchment_name": "Findhorn Group",
    "river_name": "Divie"
  },
  {
    "station_no": "365257",
    "station_name": "Dunstaffnage",
    "lat": 56.45050242,
    "lon": -5.439870612,
    "catchment_name": "Add Group",
    "river_name": ""
  },
  {
    "station_no": "234207",
    "station_name": "Durkadale",
    "lat": 59.10852817,
    "lon": -3.232172832,
    "catchment_name": "Orkneys",
    "river_name": "Durkadale Burn"
  },
  {
    "station_no": "568155",
    "station_name": "Earlsburn reservoir RG",
    "lat": 56.07055238,
    "lon": -4.07597911,
    "catchment_name": "Firth of Forth Group",
    "river_name": ""
  },
  {
    "station_no": "14997",
    "station_name": "Earlston",
    "lat": 55.64075254,
    "lon": -2.691879301,
    "catchment_name": "Tweed",
    "river_name": "Leader Water"
  },
  {
    "station_no": "133081",
    "station_name": "Eas Daimh",
    "lat": 56.40771881,
    "lon": -4.855886468,
    "catchment_name": "Awe and Etive",
    "river_name": "Eas Daimh"
  },
  {
    "station_no": "115560",
    "station_name": "East Kilbride",
    "lat": 55.75477386,
    "lon": -4.171759227,
    "catchment_name": "Clyde",
    "river_name": ""
  },
  {
    "station_no": "335659",
    "station_name": "East Lathrisk Borehole",
    "lat": 56.25925553,
    "lon": -3.157913027,
    "catchment_name": "---",
    "river_name": ""
  },
  {
    "station_no": "14870",
    "station_name": "East Linton",
    "lat": 55.98249658,
    "lon": -2.657198972,
    "catchment_name": "Tyne (Lothian)",
    "river_name": "Tyne"
  },
  {
    "station_no": "379371",
    "station_name": "Easter Balgedie Farm Obs BH Kinross",
    "lat": 56.22105625,
    "lon": -3.337335332,
    "catchment_name": "---",
    "river_name": ""
  },
  {
    "station_no": "371826",
    "station_name": "Easter Langlee Landfill BH 08-03S",
    "lat": 55.6210024840135,
    "lon": -2.77025869507769,
    "catchment_name": "---",
    "river_name": ""
  },
  {
    "station_no": "234209",
    "station_name": "Easter Turnaig",
    "lat": 57.96185041,
    "lon": -4.700859639,
    "catchment_name": "Shin Group",
    "river_name": "Oykel"
  },
  {
    "station_no": "15201",
    "station_name": "Edinburgh RBG (Royal Botanic Garden)",
    "lat": 55.96662337,
    "lon": -3.212310737,
    "catchment_name": "Almond Group",
    "river_name": ""
  },
  {
    "station_no": "133083",
    "station_name": "Eglinton Castle",
    "lat": 55.64280886,
    "lon": -4.677656958,
    "catchment_name": "Irvine and Ayr",
    "river_name": "Lugton Water"
  },
  {
    "station_no": "492363",
    "station_name": "Einig Wood",
    "lat": 57.94421601,
    "lon": -4.764511928,
    "catchment_name": "Shin Group",
    "river_name": ""
  },
  {
    "station_no": "115562",
    "station_name": "Eliock",
    "lat": 55.34583036,
    "lon": -3.899113859,
    "catchment_name": "Nith",
    "river_name": ""
  },
  {
    "station_no": "234210",
    "station_name": "Ellon",
    "lat": 57.36377128,
    "lon": -2.090017282,
    "catchment_name": "Ythan Group",
    "river_name": "Ythan"
  },
  {
    "station_no": "368495",
    "station_name": "Elphin",
    "lat": 58.05185192,
    "lon": -5.03101345,
    "catchment_name": "Laxford Group",
    "river_name": "Abhainn a Chnocain"
  },
  {
    "station_no": "14905",
    "station_name": "Elrig",
    "lat": 56.15679797,
    "lon": -4.46563232,
    "catchment_name": "Forth",
    "river_name": "Loch Ard Burn"
  },
  {
    "station_no": "377135",
    "station_name": "Erchless",
    "lat": 57.42804453,
    "lon": -4.623845183,
    "catchment_name": "Beauly",
    "river_name": "Beauly"
  },
  {
    "station_no": "511674",
    "station_name": "Eriskay Tide Gauge",
    "lat": 57.07060705,
    "lon": -7.309059721,
    "catchment_name": "Outer Hebrides",
    "river_name": "Sound of Barra"
  },
  {
    "station_no": "15100",
    "station_name": "Eskdalemuir Observatory",
    "lat": 55.31151326,
    "lon": -3.206798775,
    "catchment_name": "Esk (Dumfriesshire)",
    "river_name": ""
  },
  {
    "station_no": "115221",
    "station_name": "Esslemont House",
    "lat": 57.36510966,
    "lon": -2.112363417,
    "catchment_name": "Ythan Group",
    "river_name": ""
  },
  {
    "station_no": "115563",
    "station_name": "Ettrick Bay",
    "lat": 55.85650223,
    "lon": -5.145834193,
    "catchment_name": "Firth of Clyde Group",
    "river_name": ""
  },
  {
    "station_no": "15017",
    "station_name": "Eyemouth Mill",
    "lat": 55.8651192,
    "lon": -2.095026904,
    "catchment_name": "Tweed",
    "river_name": "Eye Water"
  },
  {
    "station_no": "525180",
    "station_name": "Eyemouth Tide Gauge",
    "lat": 55.87284359,
    "lon": -2.08638411,
    "catchment_name": "Tweed",
    "river_name": "North Sea"
  },
  {
    "station_no": "378262",
    "station_name": "Faich Bhiorach",
    "lat": 57.69020841,
    "lon": -5.660695458,
    "catchment_name": "Loch Maree group",
    "river_name": "Kerry"
  },
  {
    "station_no": "133084",
    "station_name": "Fairholm",
    "lat": 55.74419908,
    "lon": -3.986819701,
    "catchment_name": "Clyde",
    "river_name": "Avon Water"
  },
  {
    "station_no": "234215",
    "station_name": "Fasnakyle",
    "lat": 57.31811088,
    "lon": -4.799267396,
    "catchment_name": "Beauly",
    "river_name": "Glass"
  },
  {
    "station_no": "14895",
    "station_name": "Fauld Mill",
    "lat": 56.11140757,
    "lon": -3.748668124,
    "catchment_name": "Forth",
    "river_name": ""
  },
  {
    "station_no": "300349",
    "station_name": "Feddan Junction",
    "lat": 57.58762215,
    "lon": -3.726167556,
    "catchment_name": "---",
    "river_name": ""
  },
  {
    "station_no": "234217",
    "station_name": "Feshie Bridge",
    "lat": 57.11889938,
    "lon": -3.901082854,
    "catchment_name": "Spey",
    "river_name": "Feshie"
  },
  {
    "station_no": "133155",
    "station_name": "Fiddlers Ford",
    "lat": 55.09849668,
    "lon": -3.680572053,
    "catchment_name": "Nith",
    "river_name": "Cluden Water"
  },
  {
    "station_no": "15151",
    "station_name": "Fife Airport",
    "lat": 56.1816502,
    "lon": -3.222449068,
    "catchment_name": "Firth of Forth Group",
    "river_name": ""
  },
  {
    "station_no": "234218",
    "station_name": "Firhall",
    "lat": 57.57160708,
    "lon": -3.869783835,
    "catchment_name": "Findhorn Group",
    "river_name": "Nairn"
  },
  {
    "station_no": "336233",
    "station_name": "Fiskavaig",
    "lat": 57.32000886,
    "lon": -6.434954871,
    "catchment_name": "---",
    "river_name": ""
  },
  {
    "station_no": "115339",
    "station_name": "Flichity",
    "lat": 57.33128618,
    "lon": -4.221750189,
    "catchment_name": "Findhorn Group",
    "river_name": ""
  },
  {
    "station_no": "336372",
    "station_name": "Forehill",
    "lat": 57.50635026,
    "lon": -1.843281987,
    "catchment_name": "Ythan Group",
    "river_name": ""
  },
  {
    "station_no": "15044",
    "station_name": "Forfar STW",
    "lat": 56.64119141,
    "lon": -2.909780321,
    "catchment_name": "---",
    "river_name": ""
  },
  {
    "station_no": "234221",
    "station_name": "Forres",
    "lat": 57.60477145,
    "lon": -3.644084919,
    "catchment_name": "Findhorn Group",
    "river_name": "Findhorn"
  },
  {
    "station_no": "115340",
    "station_name": "Forsinain",
    "lat": 58.41100711,
    "lon": -3.873563607,
    "catchment_name": "Naver group",
    "river_name": ""
  },
  {
    "station_no": "14948",
    "station_name": "Forter",
    "lat": 56.76674681,
    "lon": -3.332205729,
    "catchment_name": "Tay",
    "river_name": "Isla (Tayside)"
  },
  {
    "station_no": "14970",
    "station_name": "Forteviot Bridge",
    "lat": 56.34759942,
    "lon": -3.548359476,
    "catchment_name": "Earn",
    "river_name": "Earn"
  },
  {
    "station_no": "534520",
    "station_name": "Fortingall - Croftgarrow",
    "lat": 56.593023140423,
    "lon": -4.0761125325504,
    "catchment_name": "---",
    "river_name": ""
  },
  {
    "station_no": "15097",
    "station_name": "Foss Mine",
    "lat": 56.66693001,
    "lon": -3.931196097,
    "catchment_name": "---",
    "river_name": ""
  },
  {
    "station_no": "14991",
    "station_name": "Fountainhall",
    "lat": 55.73663595,
    "lon": -2.905930746,
    "catchment_name": "Tweed",
    "river_name": "Gala Water"
  },
  {
    "station_no": "115565",
    "station_name": "Fourmerkland",
    "lat": 55.1650788,
    "lon": -3.412506453,
    "catchment_name": "Annan",
    "river_name": ""
  },
  {
    "station_no": "498342",
    "station_name": "Foyers",
    "lat": 57.26265002,
    "lon": -4.483020773,
    "catchment_name": "Ness",
    "river_name": "Loch Ness"
  },
  {
    "station_no": "552790",
    "station_name": "Frenich Farm",
    "lat": 56.22694162,
    "lon": -4.56047225,
    "catchment_name": "Forth",
    "river_name": ""
  },
  {
    "station_no": "133156",
    "station_name": "Friars Carse",
    "lat": 55.14868484,
    "lon": -3.690747738,
    "catchment_name": "Nith",
    "river_name": "Nith"
  },
  {
    "station_no": "133086",
    "station_name": "Gaidrew",
    "lat": 56.04809931,
    "lon": -4.434505213,
    "catchment_name": "Leven (Durnbartonshire)",
    "river_name": "Endrick Water"
  },
  {
    "station_no": "559194",
    "station_name": "Gairlochy",
    "lat": 56.91442441,
    "lon": -4.991445495,
    "catchment_name": "Lochy (Invernesshire)",
    "river_name": "Lochy (Lochaber)"
  },
  {
    "station_no": "115223",
    "station_name": "Gairnshiel",
    "lat": 57.09199509,
    "lon": -3.165582141,
    "catchment_name": "Dee (Aberdeenshire)",
    "river_name": ""
  },
  {
    "station_no": "9683",
    "station_name": "Galashiels",
    "lat": 55.62706185,
    "lon": -2.827709454,
    "catchment_name": "Tweed",
    "river_name": "Gala Water"
  },
  {
    "station_no": "14892",
    "station_name": "Gargunnock",
    "lat": 56.13266077,
    "lon": -4.070571402,
    "catchment_name": "Forth",
    "river_name": "Forth"
  },
  {
    "station_no": "301168",
    "station_name": "Garls Craig",
    "lat": 55.36599829,
    "lon": -3.616030256,
    "catchment_name": "Clyde",
    "river_name": ""
  },
  {
    "station_no": "464495",
    "station_name": "Garrogie Lodge",
    "lat": 57.17006125,
    "lon": -4.442843871,
    "catchment_name": "Ness",
    "river_name": ""
  },
  {
    "station_no": "368014",
    "station_name": "Garthdee",
    "lat": 57.11882365,
    "lon": -2.124396574,
    "catchment_name": "Dee (Aberdeenshire)",
    "river_name": "Dee (Grampian)"
  },
  {
    "station_no": "15165",
    "station_name": "Gartmore (Glenhead)",
    "lat": 56.14359903,
    "lon": -4.384422431,
    "catchment_name": "---",
    "river_name": ""
  },
  {
    "station_no": "234225",
    "station_name": "Garve",
    "lat": 57.61669586,
    "lon": -4.688028816,
    "catchment_name": "Conon Group",
    "river_name": "Blackwater"
  },
  {
    "station_no": "115568",
    "station_name": "Gatelawbridge",
    "lat": 55.25076797,
    "lon": -3.730683565,
    "catchment_name": "Nith",
    "river_name": ""
  },
  {
    "station_no": "15051",
    "station_name": "Gateside No 2",
    "lat": 56.26981667,
    "lon": -3.320837992,
    "catchment_name": "---",
    "river_name": ""
  },
  {
    "station_no": "14916",
    "station_name": "Gella Bridge",
    "lat": 56.77535832,
    "lon": -3.027929218,
    "catchment_name": "Esk Group",
    "river_name": "South Esk (Angus)"
  },
  {
    "station_no": "474984",
    "station_name": "Gifford Rain Gauge",
    "lat": 55.89043578,
    "lon": -2.768969478,
    "catchment_name": "Tyne (Lothian)",
    "river_name": ""
  },
  {
    "station_no": "15114",
    "station_name": "Gilston",
    "lat": 55.80025456,
    "lon": -2.883463821,
    "catchment_name": "Tweed",
    "river_name": ""
  },
  {
    "station_no": "133137",
    "station_name": "Girvan Tide Gauge",
    "lat": 55.24404201,
    "lon": -4.859673631,
    "catchment_name": "Doon Group",
    "river_name": "Firth of Clyde"
  },
  {
    "station_no": "15204",
    "station_name": "Gladhouse Reservoir",
    "lat": 55.7784118,
    "lon": -3.117398754,
    "catchment_name": "Almond Group",
    "river_name": ""
  },
  {
    "station_no": "17068",
    "station_name": "Glamis Castle (Drift)",
    "lat": 56.62728426,
    "lon": -3.017607865,
    "catchment_name": "---",
    "river_name": ""
  },
  {
    "station_no": "17067",
    "station_name": "Glamis Castle (Solid)",
    "lat": 56.62727528,
    "lon": -3.017607623,
    "catchment_name": "---",
    "river_name": ""
  },
  {
    "station_no": "17066",
    "station_name": "Glamis Petrol Station",
    "lat": 56.6054023,
    "lon": -3.002749238,
    "catchment_name": "---",
    "river_name": ""
  },
  {
    "station_no": "581106",
    "station_name": "Glassgreen",
    "lat": 57.63198387,
    "lon": -3.296482414,
    "catchment_name": "Findhorn Group",
    "river_name": "Linkwood Burn"
  },
  {
    "station_no": "335745",
    "station_name": "Glen Ample",
    "lat": 56.35457736,
    "lon": -4.269993694,
    "catchment_name": "Earn",
    "river_name": ""
  },
  {
    "station_no": "115343",
    "station_name": "Glen Nevis",
    "lat": 56.79923208,
    "lon": -5.067543348,
    "catchment_name": "Loch Linnhe Group",
    "river_name": ""
  },
  {
    "station_no": "133087",
    "station_name": "Glen Orchy",
    "lat": 56.44657591,
    "lon": -4.852749436,
    "catchment_name": "Awe and Etive",
    "river_name": "Orchy"
  },
  {
    "station_no": "133088",
    "station_name": "Glen Strae",
    "lat": 56.42522107,
    "lon": -5.000795867,
    "catchment_name": "Awe and Etive",
    "river_name": "Strae"
  },
  {
    "station_no": "368490",
    "station_name": "Glenbreck",
    "lat": 55.48202196,
    "lon": -3.477754728,
    "catchment_name": "Tweed",
    "river_name": "Tweed"
  },
  {
    "station_no": "115344",
    "station_name": "Glendessary",
    "lat": 56.98039082,
    "lon": -5.346337447,
    "catchment_name": "Lochy (Invernesshire)",
    "river_name": ""
  },
  {
    "station_no": "133089",
    "station_name": "Glenfalloch",
    "lat": 56.33773623,
    "lon": -4.717635246,
    "catchment_name": "Leven (Durnbartonshire)",
    "river_name": "Falloch"
  },
  {
    "station_no": "83013",
    "station_name": "Glenfield",
    "lat": 55.60118281,
    "lon": -4.493559809,
    "catchment_name": "Irvine and Ayr",
    "river_name": "Irvine"
  },
  {
    "station_no": "536846",
    "station_name": "Glengavel Reservoir",
    "lat": 55.59038124,
    "lon": -4.121595498,
    "catchment_name": "Irvine and Ayr",
    "river_name": ""
  },
  {
    "station_no": "520118",
    "station_name": "Glenkindie No 2",
    "lat": 57.2173768986597,
    "lon": -2.95433487436206,
    "catchment_name": "---",
    "river_name": ""
  },
  {
    "station_no": "133157",
    "station_name": "Glenlochar",
    "lat": 54.95554151,
    "lon": -3.979143444,
    "catchment_name": "Dee (Galloway)",
    "river_name": "Dee (Solway)"
  },
  {
    "station_no": "327238",
    "station_name": "Glenmavis",
    "lat": 55.89359141,
    "lon": -4.013210328,
    "catchment_name": "Clyde",
    "river_name": ""
  },
  {
    "station_no": "234227",
    "station_name": "Glenmeanie",
    "lat": 57.53261438,
    "lon": -4.863772899,
    "catchment_name": "Conon Group",
    "river_name": "Meig"
  },
  {
    "station_no": "115225",
    "station_name": "Glenmore Lodge No 2",
    "lat": 57.16421784,
    "lon": -3.677609728,
    "catchment_name": "Spey",
    "river_name": ""
  },
  {
    "station_no": "367371",
    "station_name": "Glenmuick No2",
    "lat": 56.95161175,
    "lon": -3.141253355,
    "catchment_name": "Dee (Aberdeenshire)",
    "river_name": ""
  },
  {
    "station_no": "14891",
    "station_name": "Glenochil",
    "lat": 56.14364525,
    "lon": -3.839304837,
    "catchment_name": "Forth",
    "river_name": "Devon"
  },
  {
    "station_no": "464636",
    "station_name": "Glenquey",
    "lat": 56.20739317,
    "lon": -3.642080305,
    "catchment_name": "Forth",
    "river_name": ""
  },
  {
    "station_no": "115226",
    "station_name": "Glenrinnes Knowe",
    "lat": 57.4052084,
    "lon": -3.184950902,
    "catchment_name": "---",
    "river_name": ""
  },
  {
    "station_no": "15196",
    "station_name": "Gogarbank",
    "lat": 55.92834002,
    "lon": -3.342742573,
    "catchment_name": "Almond Group",
    "river_name": ""
  },
  {
    "station_no": "14984",
    "station_name": "Gordon Arms",
    "lat": 55.51137227,
    "lon": -3.096406906,
    "catchment_name": "Tweed",
    "river_name": "Yarrow Water"
  },
  {
    "station_no": "15138",
    "station_name": "Gordon Hospital",
    "lat": 55.68228917,
    "lon": -2.544391507,
    "catchment_name": "---",
    "river_name": ""
  },
  {
    "station_no": "363624",
    "station_name": "Gourock Tide Gauge",
    "lat": 55.96030471,
    "lon": -4.814267835,
    "catchment_name": "Fyne Group",
    "river_name": "Firth of Clyde"
  },
  {
    "station_no": "234228",
    "station_name": "Grange",
    "lat": 57.54279921,
    "lon": -2.847774986,
    "catchment_name": "Deveron Group",
    "river_name": "Isla (Deveron)"
  },
  {
    "station_no": "601515",
    "station_name": "Granish Landfill BH GW2",
    "lat": 57.2133539663088,
    "lon": -3.81396741135781,
    "catchment_name": "---",
    "river_name": ""
  },
  {
    "station_no": "234229",
    "station_name": "Grantown",
    "lat": 57.32177064,
    "lon": -3.606725707,
    "catchment_name": "Spey",
    "river_name": "Spey"
  },
  {
    "station_no": "15015",
    "station_name": "Grantshouse",
    "lat": 55.88238352,
    "lon": -2.292035856,
    "catchment_name": "Tweed",
    "river_name": "Eye Water"
  },
  {
    "station_no": "518372",
    "station_name": "Graystone Bridge",
    "lat": 56.0675405,
    "lon": -4.282616591,
    "catchment_name": "Leven (Durnbartonshire)",
    "river_name": "Endrick Water"
  },
  {
    "station_no": "133158",
    "station_name": "Green Burn",
    "lat": 55.0828864,
    "lon": -4.381888551,
    "catchment_name": "Dee (Galloway)",
    "river_name": "Green Burn"
  },
  {
    "station_no": "115348",
    "station_name": "Greenland",
    "lat": 58.58319519,
    "lon": -3.296244677,
    "catchment_name": "---",
    "river_name": ""
  },
  {
    "station_no": "327292",
    "station_name": "Greenock",
    "lat": 55.94370132,
    "lon": -4.723991358,
    "catchment_name": "Firth of Clyde Group",
    "river_name": ""
  },
  {
    "station_no": "133159",
    "station_name": "Greensands",
    "lat": 55.06942626,
    "lon": -3.617944341,
    "catchment_name": "Nith",
    "river_name": "Nith"
  },
  {
    "station_no": "336403",
    "station_name": "Gretna (Douglas Tanks)",
    "lat": 55.013004,
    "lon": -3.079745767,
    "catchment_name": "---",
    "river_name": ""
  },
  {
    "station_no": "15210",
    "station_name": "Gullane (Golf Course)",
    "lat": 56.03443649,
    "lon": -2.836971165,
    "catchment_name": "---",
    "river_name": ""
  },
  {
    "station_no": "14924",
    "station_name": "Guthrie",
    "lat": 56.64274771,
    "lon": -2.706028939,
    "catchment_name": "Esk Group",
    "river_name": "Lunan Water"
  },
  {
    "station_no": "15226",
    "station_name": "Haddington STW",
    "lat": 55.96050923,
    "lon": -2.75022457,
    "catchment_name": "Tyne (Lothian)",
    "river_name": ""
  },
  {
    "station_no": "234231",
    "station_name": "Halkirk",
    "lat": 58.5154974,
    "lon": -3.493004244,
    "catchment_name": "Thurso Group",
    "river_name": "Thurso"
  },
  {
    "station_no": "133160",
    "station_name": "Hall Bridge",
    "lat": 55.39297897,
    "lon": -4.079109518,
    "catchment_name": "Nith",
    "river_name": "Nith"
  },
  {
    "station_no": "234232",
    "station_name": "Halladale",
    "lat": 58.47881083,
    "lon": -3.90301916,
    "catchment_name": "Naver group",
    "river_name": "Halladale"
  },
  {
    "station_no": "15105",
    "station_name": "Hallmanor House",
    "lat": 55.60307614,
    "lon": -3.255418017,
    "catchment_name": "---",
    "river_name": ""
  },
  {
    "station_no": "133092",
    "station_name": "Happendon",
    "lat": 55.5801981,
    "lon": -3.816796943,
    "catchment_name": "Clyde",
    "river_name": "Douglas Water"
  },
  {
    "station_no": "335614",
    "station_name": "Harelaw",
    "lat": 55.91651494,
    "lon": -3.086776845,
    "catchment_name": "Almond Group",
    "river_name": ""
  },
  {
    "station_no": "15131",
    "station_name": "Harelaw Chirnside",
    "lat": 55.81194693,
    "lon": -2.199504911,
    "catchment_name": "---",
    "river_name": ""
  },
  {
    "station_no": "15200",
    "station_name": "Harperrig",
    "lat": 55.83652095,
    "lon": -3.435270947,
    "catchment_name": "Almond Group",
    "river_name": ""
  },
  {
    "station_no": "335640",
    "station_name": "Hatton (Perth)",
    "lat": 56.52513594,
    "lon": -2.648539891,
    "catchment_name": "Firth of Tay Group",
    "river_name": ""
  },
  {
    "station_no": "115227",
    "station_name": "Hatton No 2",
    "lat": 57.42757524,
    "lon": -1.909678484,
    "catchment_name": "Ythan Group",
    "river_name": ""
  },
  {
    "station_no": "234235",
    "station_name": "Haughton",
    "lat": 57.27134676,
    "lon": -2.404963889,
    "catchment_name": "Don (Aberdeenshire)",
    "river_name": "Don"
  },
  {
    "station_no": "15001",
    "station_name": "Hawick",
    "lat": 55.43447121,
    "lon": -2.756965079,
    "catchment_name": "Tweed",
    "river_name": "Teviot"
  },
  {
    "station_no": "15121",
    "station_name": "Hawick Sewage Works",
    "lat": 55.43132729,
    "lon": -2.772596975,
    "catchment_name": "---",
    "river_name": ""
  },
  {
    "station_no": "133093",
    "station_name": "Hawkhead",
    "lat": 55.83606531,
    "lon": -4.398537371,
    "catchment_name": "Clyde",
    "river_name": "White Cart Water"
  },
  {
    "station_no": "133094",
    "station_name": "Hazelbank",
    "lat": 55.68735585,
    "lon": -3.854153414,
    "catchment_name": "Clyde",
    "river_name": "Clyde"
  },
  {
    "station_no": "115582",
    "station_name": "Hazelwood Cottage",
    "lat": 56.26715284,
    "lon": -5.494662553,
    "catchment_name": "Add Group",
    "river_name": ""
  },
  {
    "station_no": "14886",
    "station_name": "Headswood",
    "lat": 56.01500087,
    "lon": -3.875456793,
    "catchment_name": "Firth of Forth Group",
    "river_name": "Carron (Forth Valley)"
  },
  {
    "station_no": "8402",
    "station_name": "Hermitage",
    "lat": 56.5609809,
    "lon": -3.607201681,
    "catchment_name": "Tay",
    "river_name": "Braan"
  },
  {
    "station_no": "234237",
    "station_name": "Heugh Head",
    "lat": 57.02524569,
    "lon": -2.517160888,
    "catchment_name": "Dee (Aberdeenshire)",
    "river_name": "Feugh"
  },
  {
    "station_no": "15166",
    "station_name": "High Corrie (Gartmore)",
    "lat": 56.1262023,
    "lon": -4.446294544,
    "catchment_name": "Forth",
    "river_name": ""
  },
  {
    "station_no": "300351",
    "station_name": "Hill of Fearn farm",
    "lat": 57.76516209,
    "lon": -3.936363039,
    "catchment_name": "---",
    "river_name": ""
  },
  {
    "station_no": "133096",
    "station_name": "Hoodston Bridge",
    "lat": 55.60122684,
    "lon": -4.428249956,
    "catchment_name": "Irvine and Ayr",
    "river_name": "Cessnock Water"
  },
  {
    "station_no": "559081",
    "station_name": "Hottsbridge",
    "lat": 55.09041993,
    "lon": -3.167804617,
    "catchment_name": "Esk (Dumfriesshire)",
    "river_name": ""
  },
  {
    "station_no": "322555",
    "station_name": "Howard Park",
    "lat": 55.60465827,
    "lon": -4.499004047,
    "catchment_name": "Irvine and Ayr",
    "river_name": "Kilmarnock Water"
  },
  {
    "station_no": "15127",
    "station_name": "Hungry Snout 2 (Whiteadder Reservoir)",
    "lat": 55.86194126,
    "lon": -2.539680781,
    "catchment_name": "Tweed",
    "river_name": ""
  },
  {
    "station_no": "469625",
    "station_name": "Hunterston Terminal",
    "lat": 55.74447583,
    "lon": -4.86116797,
    "catchment_name": "Irvine and Ayr",
    "river_name": ""
  },
  {
    "station_no": "369548",
    "station_name": "Huntly GS",
    "lat": 57.45498575,
    "lon": -2.807560217,
    "catchment_name": "Deveron Group",
    "river_name": "Deveron"
  },
  {
    "station_no": "15020",
    "station_name": "Hutton Castle",
    "lat": 55.7889,
    "lon": -2.1917,
    "catchment_name": "Tweed",
    "river_name": "Whiteadder Water"
  },
  {
    "station_no": "115584",
    "station_name": "Hydro Gardens Moffat",
    "lat": 55.34214596,
    "lon": -3.452988353,
    "catchment_name": "Annan",
    "river_name": ""
  },
  {
    "station_no": "115353",
    "station_name": "Inchnadamph No 2",
    "lat": 58.1536532,
    "lon": -4.979030308,
    "catchment_name": "---",
    "river_name": ""
  },
  {
    "station_no": "115354",
    "station_name": "Inchvuilt",
    "lat": 57.40830735,
    "lon": -4.957620811,
    "catchment_name": "Beauly",
    "river_name": ""
  },
  {
    "station_no": "115585",
    "station_name": "Ingleston Farm",
    "lat": 54.81170556,
    "lon": -4.166358356,
    "catchment_name": "Cree",
    "river_name": ""
  },
  {
    "station_no": "14981",
    "station_name": "Innerleithen",
    "lat": 55.61992749,
    "lon": -3.061056074,
    "catchment_name": "Tweed",
    "river_name": "Leithen Water"
  },
  {
    "station_no": "115229",
    "station_name": "Insch No 2",
    "lat": 57.34247484,
    "lon": -2.616879972,
    "catchment_name": "---",
    "river_name": ""
  },
  {
    "station_no": "336367",
    "station_name": "Inshes",
    "lat": 57.45203372,
    "lon": -4.184715941,
    "catchment_name": "Ness",
    "river_name": ""
  },
  {
    "station_no": "234240",
    "station_name": "Inveran",
    "lat": 57.94318903,
    "lon": -4.410383325,
    "catchment_name": "Shin Group",
    "river_name": "Shin"
  },
  {
    "station_no": "234241",
    "station_name": "Inverbervie",
    "lat": 56.85144056,
    "lon": -2.286119413,
    "catchment_name": "Esk Group",
    "river_name": "Bervie"
  },
  {
    "station_no": "234242",
    "station_name": "Inverbroom",
    "lat": 57.81047099,
    "lon": -5.058237756,
    "catchment_name": "Laxford Group",
    "river_name": "Broom"
  },
  {
    "station_no": "115356",
    "station_name": "Inverewe Garden",
    "lat": 57.77399694,
    "lon": -5.596995718,
    "catchment_name": "Loch Maree group",
    "river_name": ""
  },
  {
    "station_no": "115230",
    "station_name": "Inverey",
    "lat": 56.98569953,
    "lon": -3.500915775,
    "catchment_name": "Dee (Aberdeenshire)",
    "river_name": ""
  },
  {
    "station_no": "234243",
    "station_name": "Invergairn",
    "lat": 57.05992614,
    "lon": -3.069535364,
    "catchment_name": "Dee (Aberdeenshire)",
    "river_name": "Gairn"
  },
  {
    "station_no": "371579",
    "station_name": "Inveriscandye",
    "lat": 56.79987798,
    "lon": -2.626620926,
    "catchment_name": "Esk Group",
    "river_name": "North Esk (Tayside)"
  },
  {
    "station_no": "535718",
    "station_name": "Inverlaidnan Bridge",
    "lat": 57.26705143,
    "lon": -3.883273172,
    "catchment_name": "Spey",
    "river_name": "Dulnain"
  },
  {
    "station_no": "133097",
    "station_name": "Inverlochy",
    "lat": 56.40496092,
    "lon": -4.923669812,
    "catchment_name": "Awe and Etive",
    "river_name": "Lochy (Argyll)"
  },
  {
    "station_no": "14926",
    "station_name": "Invermark",
    "lat": 56.91121364,
    "lon": -2.914811966,
    "catchment_name": "Esk Group",
    "river_name": "Water of Mark"
  },
  {
    "station_no": "234247",
    "station_name": "Invermuick",
    "lat": 57.03951544,
    "lon": -3.049304978,
    "catchment_name": "Dee (Aberdeenshire)",
    "river_name": "Muick"
  },
  {
    "station_no": "354624",
    "station_name": "Inveroykel Bailey Bridge",
    "lat": 57.97362007,
    "lon": -4.604090887,
    "catchment_name": "Shin Group",
    "river_name": "Oykel"
  },
  {
    "station_no": "234248",
    "station_name": "Invertruim",
    "lat": 57.04053804,
    "lon": -4.164639706,
    "catchment_name": "Spey",
    "river_name": "Spey"
  },
  {
    "station_no": "234249",
    "station_name": "Inverugie",
    "lat": 57.52669115,
    "lon": -1.832792272,
    "catchment_name": "Ythan Group",
    "river_name": "Ugie"
  },
  {
    "station_no": "115588",
    "station_name": "Inveruglas",
    "lat": 56.2473573,
    "lon": -4.71287133,
    "catchment_name": "Leven (Durnbartonshire)",
    "river_name": ""
  },
  {
    "station_no": "367365",
    "station_name": "Inverurie",
    "lat": 57.2583172,
    "lon": -2.362253256,
    "catchment_name": "Don (Aberdeenshire)",
    "river_name": ""
  },
  {
    "station_no": "335641",
    "station_name": "Inzion",
    "lat": 56.68930326,
    "lon": -3.177597556,
    "catchment_name": "Tay",
    "river_name": "Inzion"
  },
  {
    "station_no": "115589",
    "station_name": "Irvine Gailes",
    "lat": 55.58754361,
    "lon": -4.663320263,
    "catchment_name": "Irvine and Ayr",
    "river_name": ""
  },
  {
    "station_no": "327231",
    "station_name": "Irvine Waterside",
    "lat": 55.61682305,
    "lon": -4.674740715,
    "catchment_name": "Irvine and Ayr",
    "river_name": "Irvine"
  },
  {
    "station_no": "341495",
    "station_name": "Ivy Bridge",
    "lat": 57.31837309,
    "lon": -4.497591991,
    "catchment_name": "Ness",
    "river_name": "Coilte"
  },
  {
    "station_no": "15006",
    "station_name": "Jedburgh",
    "lat": 55.48529122,
    "lon": -2.54668704,
    "catchment_name": "Tweed",
    "river_name": "Jed Water"
  },
  {
    "station_no": "541725",
    "station_name": "Jedburgh Castle",
    "lat": 55.47029248,
    "lon": -2.557045815,
    "catchment_name": "Tweed",
    "river_name": ""
  },
  {
    "station_no": "559082",
    "station_name": "Johnstonehall",
    "lat": 55.06482387,
    "lon": -3.221128314,
    "catchment_name": "Annan",
    "river_name": "Mein Water"
  },
  {
    "station_no": "367360",
    "station_name": "Keith",
    "lat": 57.55084994,
    "lon": -2.952079018,
    "catchment_name": "Deveron Group",
    "river_name": ""
  },
  {
    "station_no": "532820",
    "station_name": "Kelly Den - Arbilot",
    "lat": 56.55248062,
    "lon": -2.640451372,
    "catchment_name": "Firth of Tay Group",
    "river_name": "Elliot Water"
  },
  {
    "station_no": "14929",
    "station_name": "Kemback",
    "lat": 56.3309034,
    "lon": -2.948442952,
    "catchment_name": "Firth of Tay Group",
    "river_name": "Eden (Fife)"
  },
  {
    "station_no": "8295",
    "station_name": "Kenmore",
    "lat": 56.59638815,
    "lon": -3.985061725,
    "catchment_name": "Tay",
    "river_name": "Tay"
  },
  {
    "station_no": "234251",
    "station_name": "Kerrow Wood",
    "lat": 57.34937628,
    "lon": -4.736427892,
    "catchment_name": "Beauly",
    "river_name": "Glass"
  },
  {
    "station_no": "494257",
    "station_name": "Kilbirnie",
    "lat": 55.75642821,
    "lon": -4.685378197,
    "catchment_name": "Irvine and Ayr",
    "river_name": "Garnock"
  },
  {
    "station_no": "133099",
    "station_name": "Killermont",
    "lat": 55.90623638,
    "lon": -4.307622592,
    "catchment_name": "Clyde",
    "river_name": "Kelvin"
  },
  {
    "station_no": "341380",
    "station_name": "Killermont Raingauge",
    "lat": 55.91108458,
    "lon": -4.305014408,
    "catchment_name": "Clyde",
    "river_name": ""
  },
  {
    "station_no": "14958",
    "station_name": "Killiecrankie",
    "lat": 56.75025399,
    "lon": -3.79910265,
    "catchment_name": "Tay",
    "river_name": "Garry (Tayside)"
  },
  {
    "station_no": "234252",
    "station_name": "Killilan",
    "lat": 57.31881832,
    "lon": -5.424835603,
    "catchment_name": "Loch Alsh Group",
    "river_name": "Ling"
  },
  {
    "station_no": "14933",
    "station_name": "Killin",
    "lat": 56.45816211,
    "lon": -4.331876561,
    "catchment_name": "Tay",
    "river_name": "Dochart"
  },
  {
    "station_no": "234253",
    "station_name": "Kilphedir",
    "lat": 58.14138911,
    "lon": -3.702814019,
    "catchment_name": "Helmsdale Group",
    "river_name": "Helmsdale"
  },
  {
    "station_no": "15211",
    "station_name": "Kilspindie",
    "lat": 56.01342344,
    "lon": -2.874113551,
    "catchment_name": "---",
    "river_name": ""
  },
  {
    "station_no": "133101",
    "station_name": "Kilwinning",
    "lat": 55.64563956,
    "lon": -4.692060096,
    "catchment_name": "Irvine and Ayr",
    "river_name": "Garnock"
  },
  {
    "station_no": "14890",
    "station_name": "Kinbuck",
    "lat": 56.2255551,
    "lon": -3.949530685,
    "catchment_name": "Forth",
    "river_name": "Allan Water"
  },
  {
    "station_no": "234254",
    "station_name": "Kincraig",
    "lat": 57.12680642,
    "lon": -3.92521234,
    "catchment_name": "Spey",
    "river_name": "Spey"
  },
  {
    "station_no": "14955",
    "station_name": "Kindrogan",
    "lat": 56.74926972,
    "lon": -3.544931301,
    "catchment_name": "Tay",
    "river_name": "Ardle"
  },
  {
    "station_no": "494728",
    "station_name": "Kingairloch Tide Gauge",
    "lat": 56.61619985,
    "lon": -5.503025816,
    "catchment_name": "Loch Linnhe Group",
    "river_name": "Loch Linnhe"
  },
  {
    "station_no": "473550",
    "station_name": "Kinghorn Ecology Centre Rain Gauge",
    "lat": 56.07462319,
    "lon": -3.193432968,
    "catchment_name": "Firth of Forth Group",
    "river_name": ""
  },
  {
    "station_no": "14972",
    "station_name": "Kingledores",
    "lat": 55.54240926,
    "lon": -3.413947163,
    "catchment_name": "Tweed",
    "river_name": "Tweed"
  },
  {
    "station_no": "15062",
    "station_name": "Kingsbarns",
    "lat": 56.31015343,
    "lon": -2.664998475,
    "catchment_name": "---",
    "river_name": ""
  },
  {
    "station_no": "503411",
    "station_name": "Kingston Tide Gauge",
    "lat": 57.67317185,
    "lon": -3.108441404,
    "catchment_name": "Findhorn Group",
    "river_name": "Moray Firth"
  },
  {
    "station_no": "14968",
    "station_name": "Kinkell Bridge",
    "lat": 56.33018709,
    "lon": -3.726992915,
    "catchment_name": "Earn",
    "river_name": "Earn"
  },
  {
    "station_no": "471362",
    "station_name": "Kinlochewe Lodge",
    "lat": 57.60438272,
    "lon": -5.291673059,
    "catchment_name": "Laxford Group",
    "river_name": "Abhainn Bruachaig"
  },
  {
    "station_no": "115596",
    "station_name": "Kinmount House",
    "lat": 55.01095443,
    "lon": -3.351411196,
    "catchment_name": "Nith",
    "river_name": ""
  },
  {
    "station_no": "234257",
    "station_name": "Kinrara",
    "lat": 57.15134199,
    "lon": -3.85017621,
    "catchment_name": "Spey",
    "river_name": "Spey"
  },
  {
    "station_no": "14903",
    "station_name": "Kinross",
    "lat": 56.19853589,
    "lon": -3.422943515,
    "catchment_name": "Firth of Forth Group",
    "river_name": "South Queich"
  },
  {
    "station_no": "335617",
    "station_name": "Kirkcaldy",
    "lat": 56.11765342,
    "lon": -3.147961765,
    "catchment_name": "Firth of Forth Group",
    "river_name": ""
  },
  {
    "station_no": "115598",
    "station_name": "Kirkcowan",
    "lat": 54.91691338,
    "lon": -4.612059475,
    "catchment_name": "Cree",
    "river_name": ""
  },
  {
    "station_no": "506171",
    "station_name": "Kirkcudbright Bay Tide Gauge",
    "lat": 54.79470544,
    "lon": -4.06235608,
    "catchment_name": "Dee (Galloway)",
    "river_name": "Solway Firth"
  },
  {
    "station_no": "504458",
    "station_name": "Kirkcudbright Raingauge",
    "lat": 54.84543419,
    "lon": -4.038511682,
    "catchment_name": "Dee (Galloway)",
    "river_name": ""
  },
  {
    "station_no": "124855",
    "station_name": "Kirkfieldbank",
    "lat": 55.67631471,
    "lon": -3.803247871,
    "catchment_name": "Clyde",
    "river_name": "Clyde"
  },
  {
    "station_no": "133102",
    "station_name": "Kirkmuirhill",
    "lat": 55.66506695,
    "lon": -3.893674093,
    "catchment_name": "Clyde",
    "river_name": "Nethan"
  },
  {
    "station_no": "116005",
    "station_name": "Kirkton Burn",
    "lat": 56.36683432,
    "lon": -4.377397065,
    "catchment_name": "Forth",
    "river_name": "Kirkton Burn"
  },
  {
    "station_no": "14923",
    "station_name": "Kirkton Mill",
    "lat": 56.63544717,
    "lon": -2.564584008,
    "catchment_name": "Esk Group",
    "river_name": "Lunan Water"
  },
  {
    "station_no": "348944",
    "station_name": "Kirkton Mill Drift Obs BH",
    "lat": 56.63549217,
    "lon": -2.564568378,
    "catchment_name": "---",
    "river_name": ""
  },
  {
    "station_no": "463690",
    "station_name": "Kirktown of Fetteresso",
    "lat": 56.96107386,
    "lon": -2.24381097,
    "catchment_name": "Esk Group",
    "river_name": "Carron Water"
  },
  {
    "station_no": "515885",
    "station_name": "Kirkwall",
    "lat": 58.98622363,
    "lon": -2.949352863,
    "catchment_name": "Orkneys",
    "river_name": ""
  },
  {
    "station_no": "536545",
    "station_name": "Kirkwall Tide Gauge",
    "lat": 58.98544269,
    "lon": -2.960257953,
    "catchment_name": "Orkneys",
    "river_name": "North Sea"
  },
  {
    "station_no": "361048",
    "station_name": "Kirriemuir STW",
    "lat": 56.65983513,
    "lon": -2.999773468,
    "catchment_name": "Tay",
    "river_name": ""
  },
  {
    "station_no": "115599",
    "station_name": "Kirriereoch",
    "lat": 55.15077902,
    "lon": -4.571934377,
    "catchment_name": "Cree",
    "river_name": ""
  },
  {
    "station_no": "115363",
    "station_name": "Knockanrock",
    "lat": 58.03118174,
    "lon": -5.07294078,
    "catchment_name": "Laxford Group",
    "river_name": ""
  },
  {
    "station_no": "379369",
    "station_name": "Knowehead shallow obs BH Freuchie",
    "lat": 56.2499251,
    "lon": -3.165039093,
    "catchment_name": "---",
    "river_name": ""
  },
  {
    "station_no": "14458",
    "station_name": "Knowhead",
    "lat": 56.24966295,
    "lon": -3.166160852,
    "catchment_name": "---",
    "river_name": ""
  },
  {
    "station_no": "368486",
    "station_name": "Ladyflat Farm",
    "lat": 55.75636712,
    "lon": -2.369501202,
    "catchment_name": "Tweed",
    "river_name": "Back Burn (Borders)"
  },
  {
    "station_no": "115600",
    "station_name": "Lagafater Lodge",
    "lat": 55.04328363,
    "lon": -4.913741812,
    "catchment_name": "Cree",
    "river_name": ""
  },
  {
    "station_no": "396186",
    "station_name": "Lagganbeg",
    "lat": 56.05128388,
    "lon": -4.52729393,
    "catchment_name": "Leven (Durnbartonshire)",
    "river_name": "Aber Burn"
  },
  {
    "station_no": "115602",
    "station_name": "Lanark B",
    "lat": 55.67954261,
    "lon": -3.784692222,
    "catchment_name": "---",
    "river_name": ""
  },
  {
    "station_no": "115603",
    "station_name": "Lanark STW",
    "lat": 55.67436394,
    "lon": -3.795938206,
    "catchment_name": "Clyde",
    "river_name": ""
  },
  {
    "station_no": "133103",
    "station_name": "Langholm A",
    "lat": 55.46679973,
    "lon": -4.362070221,
    "catchment_name": "Irvine and Ayr",
    "river_name": "Lugar Water"
  },
  {
    "station_no": "506155",
    "station_name": "Langholm Bridge",
    "lat": 55.1521906,
    "lon": -3.000489189,
    "catchment_name": "Esk (Dumfriesshire)",
    "river_name": "Esk (Solway)"
  },
  {
    "station_no": "354621",
    "station_name": "Langwell Lodge",
    "lat": 57.9748238,
    "lon": -5.100589967,
    "catchment_name": "Laxford Group",
    "river_name": "Canaird"
  },
  {
    "station_no": "14902",
    "station_name": "Lathro",
    "lat": 56.2213192,
    "lon": -3.42872292,
    "catchment_name": "Firth of Forth Group",
    "river_name": "North Queich"
  },
  {
    "station_no": "14996",
    "station_name": "Lauder (New Mills)",
    "lat": 55.73932168,
    "lon": -2.755976423,
    "catchment_name": "Tweed",
    "river_name": "Leader Water"
  },
  {
    "station_no": "356217",
    "station_name": "Laxdale",
    "lat": 57.86865846,
    "lon": -6.893581696,
    "catchment_name": "Outer Hebrides",
    "river_name": "Laxdale"
  },
  {
    "station_no": "234260",
    "station_name": "Laxford Bridge",
    "lat": 58.37221983,
    "lon": -4.991457712,
    "catchment_name": "Laxford Group",
    "river_name": "Laxford"
  },
  {
    "station_no": "412495",
    "station_name": "Lecht Weather Station",
    "lat": 57.19821668,
    "lon": -3.25888009,
    "catchment_name": "Spey",
    "river_name": ""
  },
  {
    "station_no": "133104",
    "station_name": "Lennox Castle",
    "lat": 55.98029455,
    "lon": -4.220982816,
    "catchment_name": "Clyde",
    "river_name": "Glazert Water"
  },
  {
    "station_no": "14874",
    "station_name": "Lennoxlove",
    "lat": 55.93584934,
    "lon": -2.784195821,
    "catchment_name": "Tyne (Lothian)",
    "river_name": "Gifford Water"
  },
  {
    "station_no": "133105",
    "station_name": "Letham",
    "lat": 55.76643914,
    "lon": -4.284272139,
    "catchment_name": "Clyde",
    "river_name": "Earn Water"
  },
  {
    "station_no": "338381",
    "station_name": "Letham Grange",
    "lat": 56.60403394,
    "lon": -2.609495534,
    "catchment_name": "Esk Group",
    "river_name": ""
  },
  {
    "station_no": "234262",
    "station_name": "Levishie",
    "lat": 57.22003826,
    "lon": -4.647834071,
    "catchment_name": "Ness",
    "river_name": "Moriston"
  },
  {
    "station_no": "335979",
    "station_name": "Lewis-Carishader",
    "lat": 58.19291025,
    "lon": -6.941762701,
    "catchment_name": "---",
    "river_name": ""
  },
  {
    "station_no": "14876",
    "station_name": "Liberton",
    "lat": 55.92458009,
    "lon": -3.165787507,
    "catchment_name": "Almond Group",
    "river_name": "Braid Burn"
  },
  {
    "station_no": "542772",
    "station_name": "Limmerhaugh",
    "lat": 55.51674252,
    "lon": -4.189197017,
    "catchment_name": "Irvine and Ayr",
    "river_name": "Ayr"
  },
  {
    "station_no": "14990",
    "station_name": "Lindean",
    "lat": 55.57486097,
    "lon": -2.816174621,
    "catchment_name": "Tweed",
    "river_name": "Ettrick Water"
  },
  {
    "station_no": "133106",
    "station_name": "Lingerton",
    "lat": 56.01244753,
    "lon": -5.422443562,
    "catchment_name": "Fyne Group",
    "river_name": ""
  },
  {
    "station_no": "368493",
    "station_name": "Links Farm",
    "lat": 56.53282434,
    "lon": -3.339459645,
    "catchment_name": "Tay",
    "river_name": "Isla (Tayside)"
  },
  {
    "station_no": "133107",
    "station_name": "Linnbrane",
    "lat": 55.98877125,
    "lon": -4.57598193,
    "catchment_name": "Leven (Durnbartonshire)",
    "river_name": "Leven (Loch Lomond)"
  },
  {
    "station_no": "234264",
    "station_name": "Little Assynt",
    "lat": 58.17438109,
    "lon": -5.152302768,
    "catchment_name": "Laxford Group",
    "river_name": "Inver"
  },
  {
    "station_no": "234265",
    "station_name": "Littlemill",
    "lat": 57.04544067,
    "lon": -3.118285636,
    "catchment_name": "Dee (Aberdeenshire)",
    "river_name": "Girnock Burn"
  },
  {
    "station_no": "474477",
    "station_name": "Loakmill No 2",
    "lat": 56.49180756,
    "lon": -3.508004624,
    "catchment_name": "Tay",
    "river_name": "Garry Burn"
  },
  {
    "station_no": "356328",
    "station_name": "Loch A Bhraoin",
    "lat": 57.72829261,
    "lon": -5.098319842,
    "catchment_name": "Laxford Group",
    "river_name": "Loch A Bhraoin"
  },
  {
    "station_no": "354613",
    "station_name": "Loch Ailsh Level",
    "lat": 58.04827715,
    "lon": -4.855312073,
    "catchment_name": "Shin Group",
    "river_name": "Oykel"
  },
  {
    "station_no": "554837",
    "station_name": "Loch Ard",
    "lat": 56.18379617,
    "lon": -4.422949664,
    "catchment_name": "Forth",
    "river_name": "Loch Ard"
  },
  {
    "station_no": "473090",
    "station_name": "Loch Beannacharain",
    "lat": 57.5217999,
    "lon": -4.95927599,
    "catchment_name": "Conon Group",
    "river_name": "Meig"
  },
  {
    "station_no": "133163",
    "station_name": "Loch Dee Outlet",
    "lat": 55.08809918,
    "lon": -4.386053697,
    "catchment_name": "Dee (Galloway)",
    "river_name": "Blackwater of Dee"
  },
  {
    "station_no": "115368",
    "station_name": "Loch Droma",
    "lat": 57.73309629,
    "lon": -4.936434641,
    "catchment_name": "Laxford Group",
    "river_name": ""
  },
  {
    "station_no": "234267",
    "station_name": "Loch Flemington",
    "lat": 57.54236344,
    "lon": -3.993033026,
    "catchment_name": "Ness",
    "river_name": "Loch Flemington"
  },
  {
    "station_no": "14910",
    "station_name": "Loch Katrine",
    "lat": 56.22701614,
    "lon": -4.43624573,
    "catchment_name": "Forth",
    "river_name": "Achray Water"
  },
  {
    "station_no": "477620",
    "station_name": "Loch Leven Sluices",
    "lat": 56.17937821,
    "lon": -3.335224928,
    "catchment_name": "Firth of Forth Group",
    "river_name": "Leven (Fife)"
  },
  {
    "station_no": "473675",
    "station_name": "Loch Maree",
    "lat": 57.6695583,
    "lon": -5.447154185,
    "catchment_name": "Loch Maree group",
    "river_name": "Loch Maree"
  },
  {
    "station_no": "234268",
    "station_name": "Loch Naver",
    "lat": 58.28571328,
    "lon": -4.389718176,
    "catchment_name": "Naver group",
    "river_name": "Loch Naver"
  },
  {
    "station_no": "115369",
    "station_name": "Loch Of Hundland",
    "lat": 59.11205747,
    "lon": -3.229365594,
    "catchment_name": "---",
    "river_name": ""
  },
  {
    "station_no": "485489",
    "station_name": "Loch Restil",
    "lat": 56.23604254,
    "lon": -4.853369348,
    "catchment_name": "Firth of Clyde Group",
    "river_name": ""
  },
  {
    "station_no": "354622",
    "station_name": "Loch Tormasad",
    "lat": 57.56195723,
    "lon": -7.316740973,
    "catchment_name": "Outer Hebrides",
    "river_name": "Tormasad"
  },
  {
    "station_no": "579464",
    "station_name": "Loch Vaa",
    "lat": 57.23627646,
    "lon": -3.803196316,
    "catchment_name": "Spey",
    "river_name": "Loch Vaa"
  },
  {
    "station_no": "14898",
    "station_name": "Loch Venachar",
    "lat": 56.23425763,
    "lon": -4.25686637,
    "catchment_name": "Forth",
    "river_name": "Eas Gobhain"
  },
  {
    "station_no": "458798",
    "station_name": "Lochboisdale",
    "lat": 57.15462713,
    "lon": -7.31655462,
    "catchment_name": "---",
    "river_name": ""
  },
  {
    "station_no": "115370",
    "station_name": "Lochcarron",
    "lat": 57.40008827,
    "lon": -5.494920778,
    "catchment_name": "---",
    "river_name": ""
  },
  {
    "station_no": "115371",
    "station_name": "Lochindorb Level",
    "lat": 57.39798722,
    "lon": -3.714675739,
    "catchment_name": "Findhorn Group",
    "river_name": "Lochindorb"
  },
  {
    "station_no": "336847",
    "station_name": "Lochindorb North",
    "lat": 57.41478835,
    "lon": -3.691385645,
    "catchment_name": "Findhorn Group",
    "river_name": ""
  },
  {
    "station_no": "336419",
    "station_name": "Lochmaben",
    "lat": 55.13661823,
    "lon": -3.462704212,
    "catchment_name": "---",
    "river_name": ""
  },
  {
    "station_no": "509677",
    "station_name": "Lochwinnoch",
    "lat": 55.78853152,
    "lon": -4.618943233,
    "catchment_name": "Clyde",
    "river_name": "Black Cart Water"
  },
  {
    "station_no": "567430",
    "station_name": "Logie Bridge",
    "lat": 57.49449251,
    "lon": -3.736619229,
    "catchment_name": "Findhorn Group",
    "river_name": "Findhorn"
  },
  {
    "station_no": "14927",
    "station_name": "Logie Mill",
    "lat": 56.7668773,
    "lon": -2.493365398,
    "catchment_name": "Esk Group",
    "river_name": "North Esk (Tayside)"
  },
  {
    "station_no": "133760",
    "station_name": "Longbridgemuir Farm",
    "lat": 55.00586713,
    "lon": -3.455079486,
    "catchment_name": "---",
    "river_name": ""
  },
  {
    "station_no": "473167",
    "station_name": "Lossiemouth",
    "lat": 57.71918475,
    "lon": -3.323337879,
    "catchment_name": "Spey",
    "river_name": ""
  },
  {
    "station_no": "115611",
    "station_name": "Low Creoch",
    "lat": 54.90352684,
    "lon": -4.18922643,
    "catchment_name": "Cree",
    "river_name": ""
  },
  {
    "station_no": "133167",
    "station_name": "Low Malzie",
    "lat": 54.85901864,
    "lon": -4.522077924,
    "catchment_name": "Cree",
    "river_name": "Bladnoch"
  },
  {
    "station_no": "115612",
    "station_name": "Lower Black Laggan",
    "lat": 55.07053305,
    "lon": -4.398510409,
    "catchment_name": "Dee (Galloway)",
    "river_name": ""
  },
  {
    "station_no": "115374",
    "station_name": "Lower Diabaig",
    "lat": 57.57896957,
    "lon": -5.691679137,
    "catchment_name": "---",
    "river_name": ""
  },
  {
    "station_no": "116006",
    "station_name": "Lower Monachyle",
    "lat": 56.37472206,
    "lon": -4.4712587,
    "catchment_name": "Forth",
    "river_name": ""
  },
  {
    "station_no": "14865",
    "station_name": "Luffness",
    "lat": 56.02022484,
    "lon": -2.821888561,
    "catchment_name": "Tyne (Lothian)",
    "river_name": "Peffer Burn (West)"
  },
  {
    "station_no": "17156",
    "station_name": "Luffness Borehole",
    "lat": 56.01180479,
    "lon": -2.835423016,
    "catchment_name": "---",
    "river_name": ""
  },
  {
    "station_no": "115376",
    "station_name": "Luib",
    "lat": 57.5445048,
    "lon": -5.123945869,
    "catchment_name": "Conon Group",
    "river_name": ""
  },
  {
    "station_no": "327237",
    "station_name": "Lukeston",
    "lat": 55.98447497,
    "lon": -4.240765022,
    "catchment_name": "Clyde",
    "river_name": ""
  },
  {
    "station_no": "14940",
    "station_name": "Luncarty",
    "lat": 56.46394135,
    "lon": -3.477636063,
    "catchment_name": "Tay",
    "river_name": "Ordie Burn"
  },
  {
    "station_no": "133108",
    "station_name": "Luss",
    "lat": 56.10033657,
    "lon": -4.644123033,
    "catchment_name": "Leven (Durnbartonshire)",
    "river_name": "Luss Water"
  },
  {
    "station_no": "129558",
    "station_name": "Luss Raingauge",
    "lat": 56.09892116,
    "lon": -4.638863963,
    "catchment_name": "Leven (Durnbartonshire)",
    "river_name": ""
  },
  {
    "station_no": "14928",
    "station_name": "Luther Bridge",
    "lat": 56.7936908,
    "lon": -2.55997015,
    "catchment_name": "Esk Group",
    "river_name": "Luther Water"
  },
  {
    "station_no": "14973",
    "station_name": "Lyne Ford",
    "lat": 55.64466586,
    "lon": -3.263056512,
    "catchment_name": "Tweed",
    "river_name": "Tweed"
  },
  {
    "station_no": "14974",
    "station_name": "Lyne Station",
    "lat": 55.64733183,
    "lon": -3.25808918,
    "catchment_name": "Tweed",
    "river_name": "Lyne Water"
  },
  {
    "station_no": "769215",
    "station_name": "Lyth No.2",
    "lat": 58.54946077,
    "lon": -3.20660814,
    "catchment_name": "---",
    "river_name": ""
  },
  {
    "station_no": "133110",
    "station_name": "Maidencots",
    "lat": 55.51579546,
    "lon": -3.695370189,
    "catchment_name": "Clyde",
    "river_name": "Duneaton Water"
  },
  {
    "station_no": "133111",
    "station_name": "Mainholm",
    "lat": 55.46104476,
    "lon": -4.592546164,
    "catchment_name": "Irvine and Ayr",
    "river_name": "Ayr"
  },
  {
    "station_no": "348936",
    "station_name": "Mains of Balgavies Deep sst Obs BH",
    "lat": 56.65231898,
    "lon": -2.761840366,
    "catchment_name": "---",
    "river_name": ""
  },
  {
    "station_no": "348939",
    "station_name": "Mains of Balgavies Shallow Sst Bedrock B",
    "lat": 56.65229203,
    "lon": -2.761839822,
    "catchment_name": "---",
    "river_name": ""
  },
  {
    "station_no": "234274",
    "station_name": "Mar Lodge",
    "lat": 56.98804049,
    "lon": -3.486197825,
    "catchment_name": "Dee (Aberdeenshire)",
    "river_name": "Dee (Grampian)"
  },
  {
    "station_no": "14959",
    "station_name": "Marble Lodge",
    "lat": 56.82242289,
    "lon": -3.816539353,
    "catchment_name": "Tay",
    "river_name": "Tilt"
  },
  {
    "station_no": "14976",
    "station_name": "March Street",
    "lat": 55.6553291,
    "lon": -3.19057537,
    "catchment_name": "Tweed",
    "river_name": "Eddleston Water"
  },
  {
    "station_no": "459908",
    "station_name": "Maryfield Shallow Obs BH",
    "lat": 55.08650073,
    "lon": -3.664713902,
    "catchment_name": "---",
    "river_name": ""
  },
  {
    "station_no": "340431",
    "station_name": "Maverston Farm BH3",
    "lat": 57.6566082,
    "lon": -3.169188924,
    "catchment_name": "---",
    "river_name": ""
  },
  {
    "station_no": "115616",
    "station_name": "Meadowfoot",
    "lat": 55.40534471,
    "lon": -3.799886702,
    "catchment_name": "Nith",
    "river_name": ""
  },
  {
    "station_no": "356327",
    "station_name": "Meikle Kinord",
    "lat": 57.07826247,
    "lon": -2.921345756,
    "catchment_name": "Dee (Aberdeenshire)",
    "river_name": "Loch Kinord"
  },
  {
    "station_no": "15066",
    "station_name": "Meikle Tombane",
    "lat": 56.541982,
    "lon": -3.712440434,
    "catchment_name": "---",
    "river_name": ""
  },
  {
    "station_no": "504722",
    "station_name": "Meikleholm Bridge",
    "lat": 55.36209214,
    "lon": -3.462380402,
    "catchment_name": "Annan",
    "river_name": "Annan"
  },
  {
    "station_no": "115617",
    "station_name": "Merton Bank Lochmaben",
    "lat": 55.13494009,
    "lon": -3.439865821,
    "catchment_name": "Annan",
    "river_name": ""
  },
  {
    "station_no": "14945",
    "station_name": "Mill Bank",
    "lat": 56.54503404,
    "lon": -3.333677733,
    "catchment_name": "Tay",
    "river_name": "Lunan Burn"
  },
  {
    "station_no": "354623",
    "station_name": "Mill Croft",
    "lat": 57.2886568,
    "lon": -7.368331541,
    "catchment_name": "Outer Hebrides",
    "river_name": "Abhainn Roag"
  },