station_no,station_name,lat,lon,catchment_name,river_name
15018,"Abbey St Bathans",55.85329633,-2.387448356,"Tweed","Whiteadder Water"
234150,"Aberlour",57.48021805,-3.205975095,"Spey","Spey"
14966,"Aberuchill",56.37078118,-4.019153819,"Earn","Earn"
14969,"Aberuthven",56.31968188,-3.658685969,"Earn","Ruthven Water"
322551,"Abington",55.48691533,-3.69056827,"Clyde","Clyde"
302205,"Aboyne",57.07726163,-2.771636889,"Dee (Aberdeenshire)","Tarland Burn"
115300,"Achfarry",58.31095839,-4.916337385,"---",""
115301,"Affric Lodge",57.26272622,-5.005979754,"Beauly",""
133141,"Airyhemming",54.90049986,-4.839842855,"Cree","Water of Luce"
234170,"Alford",57.24230294,-2.717123004,"Don (Aberdeenshire)","Don"
115302,"Allanfearn",57.49914747,-4.151564133,"Ness",""
234151,"Allnabad",58.34717676,-4.644621014,"Naver group","Strathmore"
368538,"Allt a' Ghlas-charnaich",57.70934072,-4.836082499,"Conon Group","Allt a Ghlas-chamaich"
115304,"Allt Dearg House",57.28490502,-6.187008123,"Inner Hebrides",""
14954,"Almondbank",56.41527516,-3.51359839,"Tay","Almond (Tayside)"
535347,"Almondbank at Main Street",56.41717637,-3.516105507,"Tay","Almond (Tayside)"
14869,"Almondell",55.90181846,-3.463017734,"Almond Group","Almond (Lothian)"
234152,"Alness",57.69601068,-4.258760757,"Conon Group","Alness"
115500,"Amlaird",55.66964373,-4.413260863,"Irvine and Ayr",""
115501,"Amod Farm",55.35009103,-5.717857841,"Kintyre Group",""
115307,"Anaheilt",56.70184457,-5.57126135,"---",""
15002,"Ancrum",55.51244139,-2.580776051,"Tweed","Ale Water"
14888,"Anie",56.25788155,-4.285414699,"Forth","Leny"
336398,"Annan (Creca)",55.02782941,-3.222506029,"---",""
15198,"Annfield",56.06640057,-3.371633207,"Firth of Forth Group",""
234153,"Apigill",58.48007214,-4.207749187,"Naver group","Naver"
300350,"Arabella Junction",57.75688278,-4.00651316,"---",""
14922,"Arbroath",56.56723031,-2.588171626,"Esk Group","Brothock Water"
336675,"ArbroathTidal",56.55550327,-2.583060469,"Esk Group","North Sea"
234154,"Arcan Spillway",57.55332889,-4.550906092,"Conon Group","Conon"
602637,"Ardachu LF BH6",-3.87578253049072,58.0175636717473,"---",""
234155,"Ardachy Bridge",57.12952381,-4.678200965,"Ness","Tarff"
234157,"Ariundle",56.70722202,-5.556782552,"Loch Sheil Group","Strontian"
115506,"Ashgrove",55.66308049,-4.757486092,"Irvine and Ayr",""
372871,"Athelstaneford",55.9852479,-2.736326688,"Tyne (Lothian)","Cogtail Burn"
491811,"Auchdergannach",57.22063972,-3.651932222,"Spey",""
133060,"Auchendrane",55.40997977,-4.627054661,"Doon Group","Doon"
133061,"Auchengeich",55.91939055,-4.114140851,"Clyde","Bothlin Burn"
15163,"Auchentroig",56.11221933,-4.342412217,"Forth",""
14964,"Auchinner",56.31678388,-4.112254665,"Earn","Allt Srath a Ghlinne"
14952,"Auchnafree",56.47302976,-3.904678161,"Tay","Almond (Tayside)"
300348,"Auldearn Junction",57.58265875,-3.836662863,"---",""
234161,"Avochie",57.50564634,-2.782377895,"Deveron Group","Deveron"
322556,"Avonbank",55.66347112,-4.051617294,"Clyde","Avon Water"
15132,"Ayton Castle",55.84727645,-2.114611023,"Tweed",""
518147,"Badbea",57.86243941,-5.318746664,"Laxford Group",""
15103,"Baddinsgill Reservoir",55.7838821,-3.394584951,"Tweed",""
501947,"Baintown Rain-gauge",56.22101614,-3.042679056,"Firth of Tay Group",""
14947,"Balbrogie",56.57225831,-3.240802881,"Tay","Isla (Tayside)"
14894,"Balfour Mains",56.1847332,-3.08157055,"Firth of Forth Group","Ore"
517412,"Balfron STW",56.06523441,-4.333343318,"Leven (Durnbartonshire)",""
490985,"Balgray RG",55.73428872,-4.5878755,"Clyde",""
516803,"Ballachraggan",57.52824441,-3.451567365,"Findhorn Group","Lossie"
14937,"Ballathie",56.5144141,-3.386963945,"Tay","Tay"
115509,"Ballindalloch Stables",56.06811229,-4.344619383,"---",""
14938,"Balmacneil",56.63825013,-3.664198017,"Tay","Tay"
115202,"Balmedie STW",57.25007263,-2.0473803,"Ythan Group",""
14919,"Balmossie",56.48175497,-2.85166534,"Firth of Tay Group","Dighty Water"
234163,"Balnaan",57.30214571,-3.699157201,"Spey","Dulnain"
206846,"Balnafoich",57.38787077,-4.188250573,"Findhorn Group","Nairn"
133062,"Balnowlart",55.10717871,-4.968322113,"Doon Group","Stinchar"
374852,"Baluniefield",56.48264025,-2.905576117,"Firth of Tay Group",""
15065,"Bankfoot",56.50262276,-3.516362582,"---",""
14897,"Bannockburn",56.09528478,-3.911816854,"Forth","Bannock Burn"
460188,"Barbush Farm BH",55.03707178,-3.628736322,"---",""
133063,"Barnaline Lodge",56.27473893,-5.278048706,"Awe and Etive","Avich"
133142,"Barsolus",54.8658531,-4.951330607,"Cree","Piltanton Burn"
115512,"Barwhillanty",55.01443032,-3.99732547,"---",""
499809,"Battledykes - Wardmill Farm",56.67359266,-2.895547661,"Esk Group",""
133143,"Beattock",55.31167269,-3.456710814,"Annan","Evan Water"
327235,"Beltmoss",55.98678855,-4.056528766,"Clyde",""
511675,"Berneray Tide Gauge",57.714282,-7.169577693,"Outer Hebrides","Sound of Harris"
368536,"Biggar Burn",55.65035093,-3.543765278,"Tweed",""
320371,"Birkie Hue",58.16554218,-6.740713858,"Outer Hebrides",""
115516,"Blackdyke Farm",55.52935031,-4.326283061,"Irvine and Ayr",""
115203,"Blackhills No 2",57.61017023,-3.222796593,"Findhorn Group",""
335578,"Blacklaw",57.58092196,-2.60024157,"Deveron Group",""
15060,"Blair Castle No 2",56.77396086,-3.85889024,"---",""
115204,"Blairdaff",57.24844532,-2.505220497,"---",""
15063,"Blairgowrie",56.60400027,-3.345448103,"---",""
133064,"Blairston",55.79734306,-4.068305537,"Clyde","Clyde"
15116,"Blythe",55.7374816,-2.662263534,"Tweed",""
234167,"Boat o  Brig",57.55104115,-3.140387991,"Spey","Spey"
234168,"Boat of Garten",57.25078305,-3.746867237,"Spey","Spey"
115206,"Bogmore",57.00332694,-2.648213352,"---",""
115207,"Bogmuchals",57.6130103,-2.7762484,"---",""
533744,"Boleside",55.59164323,-2.798878774,"Tweed","Tweed"
14885,"Bonnybridge",56.00182143,-3.886990553,"Firth of Forth Group","Bonny Water"
115518,"Boreland",55.20254702,-3.320073284,"Annan",""
234334,"Borgie Bridge",58.49740038,-4.279784356,"Naver group","Borgie"
101227,"Bow Burn Raingauge",55.44068058,-4.49863386,"Irvine and Ayr",""
15161,"Braco (Dunduff)",56.28192154,-3.904225732,"Forth",""
115315,"Braeroy Lodge",56.98511362,-4.738585589,"Lochy (Invernesshire)",""
133065,"Braevallich",56.21639554,-5.296246434,"Awe and Etive","Abhainn a Bhealaich"
133144,"Braidlie",55.26142915,-2.824951121,"Esk (Dumfriesshire)","Hermitage Water"
14917,"Brechin",56.72692276,-2.655900389,"Esk Group","South Esk (Angus)"
15058,"Brechin STW",56.72323226,-2.624054251,"---",""
14889,"Bridge of Allan",56.15901974,-3.956367475,"Forth","Allan Water"
14971,"Bridge of Earn",56.3497307,-3.402582026,"Earn","Earn"
234172,"Bridge of Oich",57.09229844,-4.74425988,"Ness","Loch Oich"
14887,"Bridge of Teith",56.18573476,-4.055574525,"Forth","Teith"
133145,"Bridgemuir",55.14632871,-3.428225271,"Annan","Kinnel Water"
133066,"Bridgend",55.94910632,-4.129006198,"Clyde","Kelvin"
321630,"Brighouse Burn",54.78864247,-4.117404209,"Cree","Brighouse Burn"
115521,"Brigton",55.03779638,-4.566314357,"Cree",""
335609,"Broadside",56.02806207,-3.978158502,"Firth of Forth Group",""
14987,"Brockhoperig",55.4061286,-3.211513384,"Tweed","Ettrick Water"
234173,"Brodie",57.59244808,-3.708878989,"Findhorn Group","Muckle Burn"
15029,"Broxmouth",55.99077195,-2.48676507,"Tyne (Lothian)","Brox Burn (East Lothian)"
234174,"Bruachrobie",58.0105569,-3.877565412,"Helmsdale Group","Brora"
133146,"Brydekirk",55.02165102,-3.267726412,"Annan","Annan"
116009,"Buckie",57.68078962,-2.954125879,"Deveron Group","Moray Firth"
115523,"Burnfoot (Hawknest)",55.66513433,-3.895712474,"Clyde",""
368492,"Burrelton Burn",56.5211801,-3.294527587,"Forth","Burrelton Burn"
335612,"Bush",55.86190844,-3.206554074,"Almond Group",""
234176,"Cabrach",57.34816,-3.034565786,"Deveron Group","Allt Deveron"
14977,"Cademuir",55.61926614,-3.244232636,"Tweed","Manor Water"
523676,"Cairngorm Raingauge and Snow Scale",57.127702,-3.662955858,"Spey",""
115526,"Caldercruix STW",55.88933558,-3.904553259,"Clyde",""
133069,"Calderpark",55.83754619,-4.10777909,"Clyde","North Calder Water"
14911,"Callander",56.2422863,-4.214924958,"Forth","Teith"
338380,"Cambo Sands",56.3008799,-2.650067453,"Firth of Tay Group",""
234178,"Camisky",56.87846936,-5.046521526,"Lochy (Invernesshire)","Lochy (Lochaber)"
490984,"Camphill WTW Raingauge",55.75032761,-4.74461262,"Clyde",""
14950,"Camusvrachan",56.60039168,-4.250199477,"Tay","Lyon"
133070,"Candermill",55.70088757,-3.966908369,"Clyde","Cander Water"
133148,"Canonbie",55.0662645,-2.946231369,"Esk (Dumfriesshire)","Esk (Solway)"
306455,"Canonbie Raingauge",55.07786221,-2.942088127,"Esk (Dumfriesshire)",""
133149,"Capenoch",55.22736754,-3.817044727,"Nith","Scar Water"
576753,"Capenoch Raingauge",55.22666817,-3.816934219,"Nith",""
14936,"Caputh",56.53919737,-3.492942476,"Tay","Tay"
348952,"Carmyllie War Memorial Obs BH",56.57474711,-2.729419511,"---",""
577951,"Carmyllie-Hume Farm",56.57464969,-2.741331877,"Esk Group",""
320374,"Carron (Stonehaven)",56.96221164,-2.216208291,"Esk Group","Carron Water"
565197,"Carron upstream (Stonehaven)",56.96155865,-2.219756428,"Esk Group","Carron"
116042,"Castle Kennedy",54.90675279,-4.944931414,"Cree",""
506142,"Castle O'er",55.22290808,-3.180030664,"Esk (Dumfriesshire)","White Esk"
14908,"Castlehill Reservoir",56.2092222,-3.60889654,"Forth","Devon"
133071,"Catrine",55.50462561,-4.336590474,"Irvine and Ayr","Ayr"
116013,"Caulkerbush",54.89874408,-3.672536736,"Dee (Galloway)","Southwick Burn"
507619,"Causer Crossroads",57.2649992764115,-3.64138230098117,"---",""
541851,"Chapeltoun Gauging Station",55.6639264,-4.554890682,"Irvine and Ayr","Annick Water"
234183,"Charr",56.94084906,-2.619402267,"Dee (Aberdeenshire)","Water of Dye"
15004,"Chesters",55.37862961,-2.589607681,"Tweed","Jed Water"
335574,"Cheyne",56.97482596,-2.266470239,"Esk Group",""
115534,"Clachan-Seil",56.30375755,-5.601429727,"Add Group",""
234184,"Clachnaharry",57.4905025,-4.263020458,"Ness","Beauly Firth"
116011,"Claggan",56.82151065,-5.088839432,"Loch Linnhe Group","Nevis"
499810,"Cleuchhead",56.94774412,-2.388756894,"Esk Group","Carron"
336370,"Cluanie Inn",57.15628843,-5.181590945,"Ness",""
115318,"Coignafearn",57.23285188,-4.139289943,"Findhorn Group",""
115319,"Coille Mhorgil",57.0643694,-5.134923813,"Ness",""
15013,"Coldstream",55.64977661,-2.256597919,"Tweed","Leet Water"
15126,"Coldstream Sewage Works",55.66440091,-2.226507154,"---",""
14880,"Colinton",55.90575791,-3.262141625,"Almond Group","Water of Leith"
14921,"Colliston",56.61000991,-2.637841019,"Esk Group","Colliston Burn"
552791,"Comer Farm",56.20150723,-4.60131038,"Forth",""
525510,"Comiston Rain Gauge",55.91019401,-3.21598827,"Almond Group",""
14951,"Comrie Bridge",56.61422921,-3.980864711,"Tay","Lyon"
133072,"Condorrat",55.92951508,-4.019603678,"Clyde","Luggie Water"
234185,"Conon Bridge",57.5694305,-4.440534753,"Conon Group","Conon"
17064,"Cookston Deep",56.61914099,-3.077765295,"---",""
234187,"Corpach",56.84179895,-5.123822546,"Lochy (Invernesshire)","Loch Linnhe"
472872,"Corrievuic",57.51349507,-5.001875565,"Conon Group","Meig"
115322,"Corrimony",57.33501743,-4.699729622,"Ness",""
336434,"Corsock",55.05876816,-3.945715778,"Dee (Galloway)",""
301400,"Coulter Reservoir",55.53306378,-3.52983359,"Clyde",""
975367,"Coupar Angus, Gilleroo",56.54878475,-3.27069639,"---",""
5981,"Cowbridge",55.89709776,-3.05890347,"Almond Group","South Esk (Lothian)"
14983,"Craig Douglas",55.5086,-3.1265,"Tweed","Yarrow Water"
234189,"Craigard",57.06557358,-4.822135914,"Ness","Garry (Ness)"
115541,"Craigdarroch",55.196659,-3.981943267,"Nith",""
133073,"Craigend",55.86450249,-4.534803989,"Clyde","Gryfe"
356326,"Craigendarroch",56.56990238,-5.749845756,"Loch Sheil Group","Aline"
513003,"Craigenlee Croft Raingauge",54.86294592,-5.075279664,"Cree",""
4638,"Craigforth",56.1360998,-3.970218251,"Forth","Forth"
14956,"Craighall (Perth)",56.60905796,-3.347175751,"Tay","Ericht"
14867,"Craigiehall",55.96313343,-3.338532726,"Almond Group","Almond (Lothian)"
7926,"Craigmill Burn Observation Borehole",56.51364342,-2.69215367,"---",""
234190,"Creed Bridge",58.20454028,-6.424227928,"Outer Hebrides","Creed"
15224,"Crichton",55.84509063,-2.988655721,"Tyne (Lothian)",""
38326176,"Crichton Mains",55.845089,-2.9865955,"---",""
520119,"Crieff",56.36081905,-3.847275886,"Earn","Earn"
533741,"Crimmonmogate",57.61852769,-1.928524204,"Ythan Group","Savoch Burn"
492364,"Cromarty",57.6828141,-4.038547427,"Conon Group","Cromarty Firth"
348956,"Crombie Country Park Obs BH",56.56228908,-2.777830007,"---",""
323575,"Crows Nest LF BH W10",57.066862279911,-2.51134136683946,"---",""
234191,"Culfork",57.18022427,-3.11016313,"Don (Aberdeenshire)","Don"
234192,"Cullen",57.68712295,-2.83323079,"Deveron Group","Burn of Deskford"
517599,"Cullochfairn raingauge",55.4554491546369,-3.9209535143948,"---",""
498341,"Culloden Battlefield",57.47676464,-4.09126842,"Ness",""
14965,"Cultybraggan",56.35972783,-4.001442447,"Earn","Ruchill Water"
115544,"Culzean Castle",55.35068095,-4.791520726,"Doon Group",""
538826,"Cunninghamhead",55.64794589,-4.584018331,"Irvine and Ayr","Annick Water"
133151,"Dalbeattie",54.92987759,-3.840969588,"Dee (Galloway)","Urr Water"
115546,"Dalbeattie STW",54.92152642,-3.821987578,"Dee (Galloway)",""
538510,"Dalblair",55.44485443,-4.151929697,"Irvine and Ayr",""
133074,"Daldowie",55.82998694,-4.121948322,"Clyde","Clyde"
327232,"Daldowie STW",55.83262494,-4.122714806,"Clyde",""
133152,"Dalgig",55.38782272,-4.277163013,"Nith","Nith"
14967,"Dalginross",56.37511953,-3.978605821,"Earn","Earn"
14925,"Dalhousie Bridge",56.8021744,-2.67047775,"Esk Group","West Water"
341344,"Dall Rannoch No2",56.67767747,-4.302183742,"---",""
205724,"Dallachy No 2",57.66404417,-3.071018416,"Spey",""
327234,"Dalmarnock STW",55.8374507,-4.216965486,"Clyde",""
14873,"Dalmore",55.84190258,-3.195905294,"Almond Group","North Esk (Lothian)"
14960,"Dalnamein",56.79925858,-4.053453634,"Tay","Garry (Tayside)"
116020,"Dalry",55.70198453,-4.716787117,"Irvine and Ayr","Garnock"
115327,"Dalvina",58.36488646,-4.230503452,"Naver group",""
302120,"Dalwhinnie",56.94069555,-4.238639574,"Spey",""
14912,"Damleys Cottage",56.22128534,-3.361631179,"Firth of Forth Group","Greens Burn"
133153,"Dargall Lane",55.0785507,-4.428445527,"Dee (Galloway)","Dargall Lane"
115550,"Darvel Raingauge",55.61477498,-4.284064756,"---",""
14946,"Dean Bridge",56.5988796,-3.153071161,"Tay","Dean Water"
341338,"Deanston RG",56.19223931,-4.077181451,"Forth",""
14986,"Deephope",55.41241422,-3.141967218,"Tweed","Tima Water"
365223,"Deerdykes Wood Deep Bedrock Borehole",57.39375416,-2.200145532,"---",""
365222,"Deerdykes Wood Shallow Bedrock BH",57.3937898,-2.200328735,"---",""
336852,"Delgaty",57.54745151,-2.401307706,"---",""
234198,"Delnashaugh",57.39970792,-3.357845061,"Spey","Avon (Spey)"
454765,"Derry Lodge",57.02065155,-3.58738853,"Dee (Aberdeenshire)",""
335582,"Deskry Shiel",57.18037959,-2.983867766,"Don (Aberdeenshire)",""
115329,"Dingwall",57.59992025,-4.446997097,"Conon Group",""
234330,"Dionard",58.49807306,-4.821196451,"Naver group","Dionard"
133077,"Dippen",55.58274848,-5.496523588,"Kintyre Group","Carradale Water"
115217,"Dipple",57.61125291,-3.115476523,"Spey",""
336517,"Dipple G",57.61186846,-3.121035659,"---",""
234200,"Diriebught House",57.47804173,-4.207153032,"Ness","Mill Burn"
115554,"Doonholm",55.42359077,-4.626552148,"---",""
234202,"Dosmucheran",57.59587318,-5.005770119,"Conon Group","Bran"
133183,"Dow Craig",55.37721095,-4.306229017,"Nith","Beoch Lane"
133078,"Dreghorn",55.61141199,-4.619377401,"Irvine and Ayr","Annick Water"
464646,"Drum",56.18484641,-3.532323684,"Firth of Forth Group",""
115556,"Drumgrain",55.81263002,-4.299507819,"---",""
378644,"Drumine BH2 Brackley Junction West",57.53996233,-4.012984897,"---",""
115557,"Drumjohn",55.24992466,-4.32205779,"Dee (Galloway)",""
133154,"Drumlanrig",55.27462204,-3.799524299,"Nith","Nith"
377134,"Drummore of Cantray",57.48325079,-4.006176025,"Findhorn Group",""
133080,"Dryfield",55.93891825,-4.182216743,"Clyde","Kelvin"
14904,"Duchray",56.15649685,-4.468109175,"Forth","Loch Ard Burn"
554833,"Duchray Water",56.19275854,-4.564061145,"Forth","Duchray Water"
15216,"Dunbar",56.00371307,-2.52752897,"Tyne (Lothian)",""
523237,"Dunblane Raingauge",56.1879233406661,-3.97480791123526,"---",""
459910,"Duncow Deep Obs BH Dumfries",55.13399663,-3.626265673,"---",""
459909,"Duncow Shallow Obs BH",55.13399663,-3.626265673,"---",""
530175,"Dundreggan Rain Gauge",57.19161541,-4.767634199,"Ness",""
115220,"Dunecht House",57.15982303,-2.413150255,"---",""
15208,"Dunglass",55.94267446,-2.38288136,"Tyne (Lothian)",""
115558,"Dungrianach",56.55231051,-5.319559821,"---",""
115559,"Dunlop",55.70737993,-4.528674906,"Irvine and Ayr",""
509196,"Dunnottar Radio Station",56.94652496,-2.21202446,"Esk Group",""
15180,"Dunnswood STW (Cumbernauld)",55.97221885,-3.954505606,"Firth of Forth Group",""
234206,"Dunphail",57.51151031,-3.661788536,"Findhorn Group","Divie"
365257,"Dunstaffnage",56.45050242,-5.439870612,"Add Group",""
234207,"Durkadale",59.10852817,-3.232172832,"Orkneys","Durkadale Burn"
568155,"Earlsburn reservoir RG",56.07055238,-4.07597911,"Firth of Forth Group",""
14997,"Earlston",55.64075254,-2.691879301,"Tweed","Leader Water"
133081,"Eas Daimh",56.40771881,-4.855886468,"Awe and Etive","Eas Daimh"
115560,"East Kilbride",55.75477386,-4.171759227,"Clyde",""
335659,"East Lathrisk Borehole",56.25925553,-3.157913027,"---",""
14870,"East Linton",55.98249658,-2.657198972,"Tyne (Lothian)","Tyne"
379371,"Easter Balgedie Farm Obs BH Kinross",56.22105625,-3.337335332,"---",""
371826,"Easter Langlee Landfill BH 08-03S",55.6210024840135,-2.77025869507769,"---",""
234209,"Easter Turnaig",57.96185041,-4.700859639,"Shin Group","Oykel"
15201,"Edinburgh RBG (Royal Botanic Garden)",55.96662337,-3.212310737,"Almond Group",""
133083,"Eglinton Castle",55.64280886,-4.677656958,"Irvine and Ayr","Lugton Water"
492363,"Einig Wood",57.94421601,-4.764511928,"Shin Group",""
115562,"Eliock",55.34583036,-3.899113859,"Nith",""
234210,"Ellon",57.36377128,-2.090017282,"Ythan Group","Ythan"
368495,"Elphin",58.05185192,-5.03101345,"Laxford Group","Abhainn a Chnocain"
14905,"Elrig",56.15679797,-4.46563232,"Forth","Loch Ard Burn"
377135,"Erchless",57.42804453,-4.623845183,"Beauly","Beauly"
511674,"Eriskay Tide Gauge",57.07060705,-7.309059721,"Outer Hebrides","Sound of Barra"
15100,"Eskdalemuir Observatory",55.31151326,-3.206798775,"Esk (Dumfriesshire)",""
115221,"Esslemont House",57.36510966,-2.112363417,"Ythan Group",""
115563,"Ettrick Bay",55.85650223,-5.145834193,"Firth of Clyde Group",""
15017,"Eyemouth Mill",55.8651192,-2.095026904,"Tweed","Eye Water"
525180,"Eyemouth Tide Gauge",55.87284359,-2.08638411,"Tweed","North Sea"
378262,"Faich Bhiorach",57.69020841,-5.660695458,"Loch Maree group","Kerry"
133084,"Fairholm",55.74419908,-3.986819701,"Clyde","Avon Water"
234215,"Fasnakyle",57.31811088,-4.799267396,"Beauly","Glass"
14895,"Fauld Mill",56.11140757,-3.748668124,"Forth",""
300349,"Feddan Junction",57.58762215,-3.726167556,"---",""
234217,"Feshie Bridge",57.11889938,-3.901082854,"Spey","Feshie"
133155,"Fiddlers Ford",55.09849668,-3.680572053,"Nith","Cluden Water"
15151,"Fife Airport",56.1816502,-3.222449068,"Firth of Forth Group",""
234218,"Firhall",57.57160708,-3.869783835,"Findhorn Group","Nairn"
336233,"Fiskavaig",57.32000886,-6.434954871,"---",""
115339,"Flichity",57.33128618,-4.221750189,"Findhorn Group",""
336372,"Forehill",57.50635026,-1.843281987,"Ythan Group",""
15044,"Forfar STW",56.64119141,-2.909780321,"---",""
234221,"Forres",57.60477145,-3.644084919,"Findhorn Group","Findhorn"
115340,"Forsinain",58.41100711,-3.873563607,"Naver group",""
14948,"Forter",56.76674681,-3.332205729,"Tay","Isla (Tayside)"
14970,"Forteviot Bridge",56.34759942,-3.548359476,"Earn","Earn"
534520,"Fortingall - Croftgarrow",56.593023140423,-4.0761125325504,"---",""
15097,"Foss Mine",56.66693001,-3.931196097,"---",""
14991,"Fountainhall",55.73663595,-2.905930746,"Tweed","Gala Water"
115565,"Fourmerkland",55.1650788,-3.412506453,"Annan",""
498342,"Foyers",57.26265002,-4.483020773,"Ness","Loch Ness"
552790,"Frenich Farm",56.22694162,-4.56047225,"Forth",""
133156,"Friars Carse",55.14868484,-3.690747738,"Nith","Nith"
133086,"Gaidrew",56.04809931,-4.434505213,"Leven (Durnbartonshire)","Endrick Water"
559194,"Gairlochy",56.91442441,-4.991445495,"Lochy (Invernesshire)","Lochy (Lochaber)"
115223,"Gairnshiel",57.09199509,-3.165582141,"Dee (Aberdeenshire)",""
9683,"Galashiels",55.62706185,-2.827709454,"Tweed","Gala Water"
14892,"Gargunnock",56.13266077,-4.070571402,"Forth","Forth"
301168,"Garls Craig",55.36599829,-3.616030256,"Clyde",""
464495,"Garrogie Lodge",57.17006125,-4.442843871,"Ness",""
368014,"Garthdee",57.11882365,-2.124396574,"Dee (Aberdeenshire)","Dee (Grampian)"
15165,"Gartmore (Glenhead)",56.14359903,-4.384422431,"---",""
234225,"Garve",57.61669586,-4.688028816,"Conon Group","Blackwater"
115568,"Gatelawbridge",55.25076797,-3.730683565,"Nith",""
15051,"Gateside No 2",56.26981667,-3.320837992,"---",""
14916,"Gella Bridge",56.77535832,-3.027929218,"Esk Group","South Esk (Angus)"
474984,"Gifford Rain Gauge",55.89043578,-2.768969478,"Tyne (Lothian)",""
15114,"Gilston",55.80025456,-2.883463821,"Tweed",""
133137,"Girvan Tide Gauge",55.24404201,-4.859673631,"Doon Group","Firth of Clyde"
15204,"Gladhouse Reservoir",55.7784118,-3.117398754,"Almond Group",""
17068,"Glamis Castle (Drift)",56.62728426,-3.017607865,"---",""
17067,"Glamis Castle (Solid)",56.62727528,-3.017607623,"---",""
17066,"Glamis Petrol Station",56.6054023,-3.002749238,"---",""
581106,"Glassgreen",57.63198387,-3.296482414,"Findhorn Group","Linkwood Burn"
335745,"Glen Ample",56.35457736,-4.269993694,"Earn",""
115343,"Glen Nevis",56.79923208,-5.067543348,"Loch Linnhe Group",""
133087,"Glen Orchy",56.44657591,-4.852749436,"Awe and Etive","Orchy"
133088,"Glen Strae",56.42522107,-5.000795867,"Awe and Etive","Strae"
368490,"Glenbreck",55.48202196,-3.477754728,"Tweed","Tweed"
115344,"Glendessary",56.98039082,-5.346337447,"Lochy (Invernesshire)",""
133089,"Glenfalloch",56.33773623,-4.717635246,"Leven (Durnbartonshire)","Falloch"
83013,"Glenfield",55.60118281,-4.493559809,"Irvine and Ayr","Irvine"
536846,"Glengavel Reservoir",55.59038124,-4.121595498,"Irvine and Ayr",""
520118,"Glenkindie No 2",57.2173768986597,-2.95433487436206,"---",""
133157,"Glenlochar",54.95554151,-3.979143444,"Dee (Galloway)","Dee (Solway)"
327238,"Glenmavis",55.89359141,-4.013210328,"Clyde",""
234227,"Glenmeanie",57.53261438,-4.863772899,"Conon Group","Meig"
115225,"Glenmore Lodge No 2",57.16421784,-3.677609728,"Spey",""
367371,"Glenmuick No2",56.95161175,-3.141253355,"Dee (Aberdeenshire)",""
14891,"Glenochil",56.14364525,-3.839304837,"Forth","Devon"
464636,"Glenquey",56.20739317,-3.642080305,"Forth",""
115226,"Glenrinnes Knowe",57.4052084,-3.184950902,"---",""
15196,"Gogarbank",55.92834002,-3.342742573,"Almond Group",""
14984,"Gordon Arms",55.51137227,-3.096406906,"Tweed","Yarrow Water"
15138,"Gordon Hospital",55.68228917,-2.544391507,"---",""
363624,"Gourock Tide Gauge",55.96030471,-4.814267835,"Fyne Group","Firth of Clyde"
234228,"Grange",57.54279921,-2.847774986,"Deveron Group","Isla (Deveron)"
601515,"Granish Landfill BH GW2",57.2133539663088,-3.81396741135781,"---",""
234229,"Grantown",57.32177064,-3.606725707,"Spey","Spey"
15015,"Grantshouse",55.88238352,-2.292035856,"Tweed","Eye Water"
518372,"Graystone Bridge",56.0675405,-4.282616591,"Leven (Durnbartonshire)","Endrick Water"
133158,"Green Burn",55.0828864,-4.381888551,"Dee (Galloway)","Green Burn"
115348,"Greenland",58.58319519,-3.296244677,"---",""
327292,"Greenock",55.94370132,-4.723991358,"Firth of Clyde Group",""
133159,"Greensands",55.06942626,-3.617944341,"Nith","Nith"
336403,"Gretna (Douglas Tanks)",55.013004,-3.079745767,"---",""
15210,"Gullane (Golf Course)",56.03443649,-2.836971165,"---",""
14924,"Guthrie",56.64274771,-2.706028939,"Esk Group","Lunan Water"
15226,"Haddington STW",55.96050923,-2.75022457,"Tyne (Lothian)",""
234231,"Halkirk",58.5154974,-3.493004244,"Thurso Group","Thurso"
133160,"Hall Bridge",55.39297897,-4.079109518,"Nith","Nith"
234232,"Halladale",58.47881083,-3.90301916,"Naver group","Halladale"
15105,"Hallmanor House",55.60307614,-3.255418017,"---",""
133092,"Happendon",55.5801981,-3.816796943,"Clyde","Douglas Water"
335614,"Harelaw",55.91651494,-3.086776845,"Almond Group",""
15131,"Harelaw Chirnside",55.81194693,-2.199504911,"---",""
15200,"Harperrig",55.83652095,-3.435270947,"Almond Group",""
335640,"Hatton (Perth)",56.52513594,-2.648539891,"Firth of Tay Group",""
115227,"Hatton No 2",57.42757524,-1.909678484,"Ythan Group",""
234235,"Haughton",57.27134676,-2.404963889,"Don (Aberdeenshire)","Don"
15001,"Hawick",55.43447121,-2.756965079,"Tweed","Teviot"
15121,"Hawick Sewage Works",55.43132729,-2.772596975,"---",""
133093,"Hawkhead",55.83606531,-4.398537371,"Clyde","White Cart Water"
133094,"Hazelbank",55.68735585,-3.854153414,"Clyde","Clyde"
115582,"Hazelwood Cottage",56.26715284,-5.494662553,"Add Group",""
14886,"Headswood",56.01500087,-3.875456793,"Firth of Forth Group","Carron (Forth Valley)"
8402,"Hermitage",56.5609809,-3.607201681,"Tay","Braan"
234237,"Heugh Head",57.02524569,-2.517160888,"Dee (Aberdeenshire)","Feugh"
15166,"High Corrie (Gartmore)",56.1262023,-4.446294544,"Forth",""
300351,"Hill of Fearn farm",57.76516209,-3.936363039,"---",""
133096,"Hoodston Bridge",55.60122684,-4.428249956,"Irvine and Ayr","Cessnock Water"
559081,"Hottsbridge",55.09041993,-3.167804617,"Esk (Dumfriesshire)",""
322555,"Howard Park",55.60465827,-4.499004047,"Irvine and Ayr","Kilmarnock Water"
15127,"Hungry Snout 2 (Whiteadder Reservoir)",55.86194126,-2.539680781,"Tweed",""
469625,"Hunterston Terminal",55.74447583,-4.86116797,"Irvine and Ayr",""
369548,"Huntly GS",57.45498575,-2.807560217,"Deveron Group","Deveron"
15020,"Hutton Castle",55.7889,-2.1917,"Tweed","Whiteadder Water"
115584,"Hydro Gardens Moffat",55.34214596,-3.452988353,"Annan",""
115353,"Inchnadamph No 2",58.1536532,-4.979030308,"---",""
115354,"Inchvuilt",57.40830735,-4.957620811,"Beauly",""
115585,"Ingleston Farm",54.81170556,-4.166358356,"Cree",""
14981,"Innerleithen",55.61992749,-3.061056074,"Tweed","Leithen Water"
115229,"Insch No 2",57.34247484,-2.616879972,"---",""
336367,"Inshes",57.45203372,-4.184715941,"Ness",""
234240,"Inveran",57.94318903,-4.410383325,"Shin Group","Shin"
234241,"Inverbervie",56.85144056,-2.286119413,"Esk Group","Bervie"
234242,"Inverbroom",57.81047099,-5.058237756,"Laxford Group","Broom"
115356,"Inverewe Garden",57.77399694,-5.596995718,"Loch Maree group",""
115230,"Inverey",56.98569953,-3.500915775,"Dee (Aberdeenshire)",""
234243,"Invergairn",57.05992614,-3.069535364,"Dee (Aberdeenshire)","Gairn"
371579,"Inveriscandye",56.79987798,-2.626620926,"Esk Group","North Esk (Tayside)"
535718,"Inverlaidnan Bridge",57.26705143,-3.883273172,"Spey","Dulnain"
133097,"Inverlochy",56.40496092,-4.923669812,"Awe and Etive","Lochy (Argyll)"
14926,"Invermark",56.91121364,-2.914811966,"Esk Group","Water of Mark"
234247,"Invermuick",57.03951544,-3.049304978,"Dee (Aberdeenshire)","Muick"
354624,"Inveroykel Bailey Bridge",57.97362007,-4.604090887,"Shin Group","Oykel"
234248,"Invertruim",57.04053804,-4.164639706,"Spey","Spey"
234249,"Inverugie",57.52669115,-1.832792272,"Ythan Group","Ugie"
115588,"Inveruglas",56.2473573,-4.71287133,"Leven (Durnbartonshire)",""
367365,"Inverurie",57.2583172,-2.362253256,"Don (Aberdeenshire)",""
335641,"Inzion",56.68930326,-3.177597556,"Tay","Inzion"
115589,"Irvine Gailes",55.58754361,-4.663320263,"Irvine and Ayr",""
327231,"Irvine Waterside",55.61682305,-4.674740715,"Irvine and Ayr","Irvine"
341495,"Ivy Bridge",57.31837309,-4.497591991,"Ness","Coilte"
15006,"Jedburgh",55.48529122,-2.54668704,"Tweed","Jed Water"
541725,"Jedburgh Castle",55.47029248,-2.557045815,"Tweed",""
559082,"Johnstonehall",55.06482387,-3.221128314,"Annan","Mein Water"
367360,"Keith",57.55084994,-2.952079018,"Deveron Group",""
532820,"Kelly Den - Arbilot",56.55248062,-2.640451372,"Firth of Tay Group","Elliot Water"
14929,"Kemback",56.3309034,-2.948442952,"Firth of Tay Group","Eden (Fife)"
8295,"Kenmore",56.59638815,-3.985061725,"Tay","Tay"
234251,"Kerrow Wood",57.34937628,-4.736427892,"Beauly","Glass"
494257,"Kilbirnie",55.75642821,-4.685378197,"Irvine and Ayr","Garnock"
133099,"Killermont",55.90623638,-4.307622592,"Clyde","Kelvin"
341380,"Killermont Raingauge",55.91108458,-4.305014408,"Clyde",""
14958,"Killiecrankie",56.75025399,-3.79910265,"Tay","Garry (Tayside)"
234252,"Killilan",57.31881832,-5.424835603,"Loch Alsh Group","Ling"
14933,"Killin",56.45816211,-4.331876561,"Tay","Dochart"
234253,"Kilphedir",58.14138911,-3.702814019,"Helmsdale Group","Helmsdale"
15211,"Kilspindie",56.01342344,-2.874113551,"---",""
133101,"Kilwinning",55.64563956,-4.692060096,"Irvine and Ayr","Garnock"
14890,"Kinbuck",56.2255551,-3.949530685,"Forth","Allan Water"
234254,"Kincraig",57.12680642,-3.92521234,"Spey","Spey"
14955,"Kindrogan",56.74926972,-3.544931301,"Tay","Ardle"
494728,"Kingairloch Tide Gauge",56.61619985,-5.503025816,"Loch Linnhe Group","Loch Linnhe"
473550,"Kinghorn Ecology Centre Rain Gauge",56.07462319,-3.193432968,"Firth of Forth Group",""
14972,"Kingledores",55.54240926,-3.413947163,"Tweed","Tweed"
15062,"Kingsbarns",56.31015343,-2.664998475,"---",""
503411,"Kingston Tide Gauge",57.67317185,-3.108441404,"Findhorn Group","Moray Firth"
14968,"Kinkell Bridge",56.33018709,-3.726992915,"Earn","Earn"
471362,"Kinlochewe Lodge",57.60438272,-5.291673059,"Laxford Group","Abhainn Bruachaig"
115596,"Kinmount House",55.01095443,-3.351411196,"Nith",""
234257,"Kinrara",57.15134199,-3.85017621,"Spey","Spey"
14903,"Kinross",56.19853589,-3.422943515,"Firth of Forth Group","South Queich"
335617,"Kirkcaldy",56.11765342,-3.147961765,"Firth of Forth Group",""
115598,"Kirkcowan",54.91691338,-4.612059475,"Cree",""
506171,"Kirkcudbright Bay Tide Gauge",54.79470544,-4.06235608,"Dee (Galloway)","Solway Firth"
504458,"Kirkcudbright Raingauge",54.84543419,-4.038511682,"Dee (Galloway)",""
124855,"Kirkfieldbank",55.67631471,-3.803247871,"Clyde","Clyde"
133102,"Kirkmuirhill",55.66506695,-3.893674093,"Clyde","Nethan"
116005,"Kirkton Burn",56.36683432,-4.377397065,"Forth","Kirkton Burn"
14923,"Kirkton Mill",56.63544717,-2.564584008,"Esk Group","Lunan Water"
348944,"Kirkton Mill Drift Obs BH",56.63549217,-2.564568378,"---",""
463690,"Kirktown of Fetteresso",56.96107386,-2.24381097,"Esk Group","Carron Water"
515885,"Kirkwall",58.98622363,-2.949352863,"Orkneys",""
536545,"Kirkwall Tide Gauge",58.98544269,-2.960257953,"Orkneys","North Sea"
361048,"Kirriemuir STW",56.65983513,-2.999773468,"Tay",""
115599,"Kirriereoch",55.15077902,-4.571934377,"Cree",""
115363,"Knockanrock",58.03118174,-5.07294078,"Laxford Group",""
379369,"Knowehead shallow obs BH Freuchie",56.2499251,-3.165039093,"---",""
14458,"Knowhead",56.24966295,-3.166160852,"---",""
368486,"Ladyflat Farm",55.75636712,-2.369501202,"Tweed","Back Burn (Borders)"
115600,"Lagafater Lodge",55.04328363,-4.913741812,"Cree",""
396186,"Lagganbeg",56.05128388,-4.52729393,"Leven (Durnbartonshire)","Aber Burn"
115602,"Lanark B",55.67954261,-3.784692222,"---",""
115603,"Lanark STW",55.67436394,-3.795938206,"Clyde",""
133103,"Langholm A",55.46679973,-4.362070221,"Irvine and Ayr","Lugar Water"
506155,"Langholm Bridge",55.1521906,-3.000489189,"Esk (Dumfriesshire)","Esk (Solway)"
354621,"Langwell Lodge",57.9748238,-5.100589967,"Laxford Group","Canaird"
14902,"Lathro",56.2213192,-3.42872292,"Firth of Forth Group","North Queich"
14996,"Lauder (New Mills)",55.73932168,-2.755976423,"Tweed","Leader Water"
356217,"Laxdale",57.86865846,-6.893581696,"Outer Hebrides","Laxdale"
234260,"Laxford Bridge",58.37221983,-4.991457712,"Laxford Group","Laxford"
412495,"Lecht Weather Station",57.19821668,-3.25888009,"Spey",""
133104,"Lennox Castle",55.98029455,-4.220982816,"Clyde","Glazert Water"
14874,"Lennoxlove",55.93584934,-2.784195821,"Tyne (Lothian)","Gifford Water"
133105,"Letham",55.76643914,-4.284272139,"Clyde","Earn Water"
338381,"Letham Grange",56.60403394,-2.609495534,"Esk Group",""
234262,"Levishie",57.22003826,-4.647834071,"Ness","Moriston"
335979,"Lewis-Carishader",58.19291025,-6.941762701,"---",""
14876,"Liberton",55.92458009,-3.165787507,"Almond Group","Braid Burn"
542772,"Limmerhaugh",55.51674252,-4.189197017,"Irvine and Ayr","Ayr"
14990,"Lindean",55.57486097,-2.816174621,"Tweed","Ettrick Water"
133106,"Lingerton",56.01244753,-5.422443562,"Fyne Group",""
368493,"Links Farm",56.53282434,-3.339459645,"Tay","Isla (Tayside)"
133107,"Linnbrane",55.98877125,-4.57598193,"Leven (Durnbartonshire)","Leven (Loch Lomond)"
234264,"Little Assynt",58.17438109,-5.152302768,"Laxford Group","Inver"
234265,"Littlemill",57.04544067,-3.118285636,"Dee (Aberdeenshire)","Girnock Burn"
474477,"Loakmill No 2",56.49180756,-3.508004624,"Tay","Garry Burn"
356328,"Loch A Bhraoin",57.72829261,-5.098319842,"Laxford Group","Loch A Bhraoin"
354613,"Loch Ailsh Level",58.04827715,-4.855312073,"Shin Group","Oykel"
554837,"Loch Ard",56.18379617,-4.422949664,"Forth","Loch Ard"
473090,"Loch Beannacharain",57.5217999,-4.95927599,"Conon Group","Meig"
133163,"Loch Dee Outlet",55.08809918,-4.386053697,"Dee (Galloway)","Blackwater of Dee"
115368,"Loch Droma",57.73309629,-4.936434641,"Laxford Group",""
234267,"Loch Flemington",57.54236344,-3.993033026,"Ness","Loch Flemington"
14910,"Loch Katrine",56.22701614,-4.43624573,"Forth","Achray Water"
477620,"Loch Leven Sluices",56.17937821,-3.335224928,"Firth of Forth Group","Leven (Fife)"
473675,"Loch Maree",57.6695583,-5.447154185,"Loch Maree group","Loch Maree"
234268,"Loch Naver",58.28571328,-4.389718176,"Naver group","Loch Naver"
115369,"Loch Of Hundland",59.11205747,-3.229365594,"---",""
485489,"Loch Restil",56.23604254,-4.853369348,"Firth of Clyde Group",""
354622,"Loch Tormasad",57.56195723,-7.316740973,"Outer Hebrides","Tormasad"
579464,"Loch Vaa",57.23627646,-3.803196316,"Spey","Loch Vaa"
14898,"Loch Venachar",56.23425763,-4.25686637,"Forth","Eas Gobhain"
458798,"Lochboisdale",57.15462713,-7.31655462,"---",""
115370,"Lochcarron",57.40008827,-5.494920778,"---",""
115371,"Lochindorb Level",57.39798722,-3.714675739,"Findhorn Group","Lochindorb"
336847,"Lochindorb North",57.41478835,-3.691385645,"Findhorn Group",""
336419,"Lochmaben",55.13661823,-3.462704212,"---",""
509677,"Lochwinnoch",55.78853152,-4.618943233,"Clyde","Black Cart Water"
567430,"Logie Bridge",57.49449251,-3.736619229,"Findhorn Group","Findhorn"
14927,"Logie Mill",56.7668773,-2.493365398,"Esk Group","North Esk (Tayside)"
133760,"Longbridgemuir Farm",55.00586713,-3.455079486,"---",""
473167,"Lossiemouth",57.71918475,-3.323337879,"Spey",""
115611,"Low Creoch",54.90352684,-4.18922643,"Cree",""
133167,"Low Malzie",54.85901864,-4.522077924,"Cree","Bladnoch"
115612,"Lower Black Laggan",55.07053305,-4.398510409,"Dee (Galloway)",""
115374,"Lower Diabaig",57.57896957,-5.691679137,"---",""
116006,"Lower Monachyle",56.37472206,-4.4712587,"Forth",""
14865,"Luffness",56.02022484,-2.821888561,"Tyne (Lothian)","Peffer Burn (West)"
17156,"Luffness Borehole",56.01180479,-2.835423016,"---",""
115376,"Luib",57.5445048,-5.123945869,"Conon Group",""
327237,"Lukeston",55.98447497,-4.240765022,"Clyde",""
14940,"Luncarty",56.46394135,-3.477636063,"Tay","Ordie Burn"
133108,"Luss",56.10033657,-4.644123033,"Leven (Durnbartonshire)","Luss Water"
129558,"Luss Raingauge",56.09892116,-4.638863963,"Leven (Durnbartonshire)",""
14928,"Luther Bridge",56.7936908,-2.55997015,"Esk Group","Luther Water"
14973,"Lyne Ford",55.64466586,-3.263056512,"Tweed","Tweed"
14974,"Lyne Station",55.64733183,-3.25808918,"Tweed","Lyne Water"
769215,"Lyth No.2",58.54946077,-3.20660814,"---",""
133110,"Maidencots",55.51579546,-3.695370189,"Clyde","Duneaton Water"
133111,"Mainholm",55.46104476,-4.592546164,"Irvine and Ayr","Ayr"
348936,"Mains of Balgavies Deep sst Obs BH",56.65231898,-2.761840366,"---",""
348939,"Mains of Balgavies Shallow Sst Bedrock B",56.65229203,-2.761839822,"---",""
234274,"Mar Lodge",56.98804049,-3.486197825,"Dee (Aberdeenshire)","Dee (Grampian)"
14959,"Marble Lodge",56.82242289,-3.816539353,"Tay","Tilt"
14976,"March Street",55.6553291,-3.19057537,"Tweed","Eddleston Water"
459908,"Maryfield Shallow Obs BH",55.08650073,-3.664713902,"---",""
340431,"Maverston Farm BH3",57.6566082,-3.169188924,"---",""
115616,"Meadowfoot",55.40534471,-3.799886702,"Nith",""
356327,"Meikle Kinord",57.07826247,-2.921345756,"Dee (Aberdeenshire)","Loch Kinord"
15066,"Meikle Tombane",56.541982,-3.712440434,"---",""
504722,"Meikleholm Bridge",55.36209214,-3.462380402,"Annan","Annan"
115617,"Merton Bank Lochmaben",55.13494009,-3.439865821,"Annan",""
14945,"Mill Bank",56.54503404,-3.333677733,"Tay","Lunan Burn"
354623,"Mill Croft",57.2886568,-7.368331541,"Outer Hebrides","Abhainn Roag"
205209,"Mill Of Gavel",57.55561687,-2.009109628,"Ythan Group",""
368494,"Mill of Keithfield",57.39549598,-2.268170959,"Ythan Group","Keithfield Burn"
365228,"Mill of Keithfield BH",57.3950635,-2.268783395,"---",""
234277,"Mill of Tore",57.33389585,-4.575831167,"Ness","Enrick"
133112,"Milliken Park",55.82523457,-4.537788828,"Clyde","Black Cart Water"
115618,"Millport",55.74955539,-4.907441406,"Irvine and Ayr",""
133113,"Milngavie",55.93341456,-4.309062631,"Clyde","Allander Water"
14907,"Milton",56.18112306,-4.412580797,"Forth","Avondhu Burn"
15080,"Milton of Abercairny",56.38855693,-3.780451706,"---",""
133114,"Milton of Campsie",55.95994689,-4.153697207,"Clyde","Glazert Water"
494729,"Milton of Evelix TBR",57.89128749,-4.084164503,"Shin Group",""
234279,"Minmore",57.34451357,-3.328222906,"Spey","Livet"
338429,"Minnigaff",54.9588823,-4.471659058,"Cree",""
133168,"Minnoch Bridge",55.03887143,-4.563503023,"Cree","Water of Minnoch"
14949,"Moar",56.57276553,-4.388958153,"Tay","Lyon"
115235,"Mongour",57.00199506,-2.388582046,"Dee (Aberdeenshire)",""
15078,"Montrose",56.69908575,-2.491155025,"Esk Group",""
133115,"Monyquil Farm",55.56419458,-5.271931931,"Kintyre Group","Machrie Water"
557502,"Morebattle - The Steading",55.513011442837,-2.37190367971812,"---",""
133169,"Mossknowe",55.01280562,-3.119586538,"Esk (Dumfriesshire)","Kirtle Water"
15022,"Mouthbridge",55.77012815,-2.279193263,"Tweed","Blackadder Water"
234284,"Moy Bridge",57.55657789,-4.539965573,"Conon Group","Conon"
115621,"Mugdock Country Park",55.97229231,-4.331124308,"---",""
115380,"Muir of Ord No 2",57.51661685,-4.461986958,"---",""
234286,"Muiresk",57.53766592,-2.493533301,"Deveron Group","Deveron"
115622,"Muirkirk STW",55.51335703,-4.096604222,"Irvine and Ayr",""
490986,"Muirshiel RG",55.84918458,-4.742664896,"Clyde",""
115236,"Mulben",57.52490671,-3.101199589,"---",""
372859,"Murray Burn",55.91287677,-3.317681386,"Tyne (Lothian)","Murray Burn"
14868,"Murrayfield",55.94563152,-3.237786767,"Almond Group","Water of Leith"
335650,"Murton",56.65077608,-2.823539396,"Esk Group","Lunan Water"
348935,"Murton Nature Reserve Observation BH",56.64902313,-2.829111283,"---",""
635,"Musselburgh",55.93950941,-3.060909073,"Almond Group","Esk (Lothian)"
341339,"Musselburgh Tidal",55.94722512,-3.048630228,"Almond Group","Firth of Forth"
335651,"Mylnefield",56.46017678,-3.075838089,"Firth of Tay Group",""
341224,"Nairn Dunbar Golf Course",57.59406094,-3.842759406,"Findhorn Group",""
234287,"Ness-side",57.4545366,-4.259846808,"Ness","Ness"
335803,"Nether Borlum",57.46312383,-3.340191584,"---",""
234289,"New Kelso",57.42953514,-5.429999168,"Loch Alsh Group","Carron (Wester Ross)"
336526,"Newbridge",55.0929593,-3.644453696,"---",""
133170,"Newcastleton",55.17647238,-2.81316152,"Esk (Dumfriesshire)","Liddel Water"
234290,"Newhall Bridge",57.65781737,-4.17662641,"Conon Group","Newhall Burn"
14882,"Newliston",55.9429625,-3.420216359,"Tyne (Lothian)","Brox Burn (East Lothian)"
133117,"Newmilns",55.60610732,-4.331033075,"Irvine and Ayr","Irvine"
14914,"Newport",56.43741936,-2.94561274,"Tay","Firth of Tay"
14953,"Newton Bridge",56.4611514,-3.799234379,"Tay","Almond (Tayside)"
15083,"Newton of Falkland",56.25431474,-3.186268594,"Firth of Tay Group",""
14419,"Newton of Falkland Borehole",56.25379438,-3.186187933,"---",""
133171,"Newton Stewart",54.95726338,-4.480525846,"Cree","Cree"
115627,"Newtonairds",55.10134134,-3.742902191,"Nith",""
15118,"Newtown Sewage Works",55.57727007,-2.662608647,"---",""
335797,"Nigg Headworks",57.13140193,-2.061103972,"Esk Group",""
9514,"Norham",55.72229365,-2.163435109,"Tweed","Tweed"
335621,"North Berwick (Kingston)",56.03149667,-2.734270572,"Tyne (Lothian)",""
336228,"North Voxter",60.03840774,-1.219227437,"---",""
14909,"Nungate",55.95402395,-2.771735305,"Tyne (Lothian)","Tyne"
15215,"Nunraw Abbey",55.92185875,-2.653499917,"Tyne (Lothian)",""
490749,"Oban Tidal",56.41160383,-5.480662403,"Kintyre Group","Firth of Lorn"
367364,"Old Mill of Newton",57.35801578,-2.577016947,"Ythan Group",""
115385,"Old Town Ardgay",57.87370804,-4.369676162,"---",""
335978,"Ord",57.15038733,-5.939815958,"---",""
15007,"Ormiston Mill",55.54491924,-2.473314492,"Tweed","Teviot"
133118,"Overlee",55.78987786,-4.266853356,"Clyde","White Cart Water"
133119,"Oxgang",55.9354055,-4.13808503,"Clyde","Luggie Water"
234291,"Park",57.075424,-2.335825098,"Dee (Aberdeenshire)","Dee (Grampian)"
234292,"Parkhill",57.21832146,-2.187586406,"Don (Aberdeenshire)","Don"
14979,"Peebles",55.64758358,-3.180313467,"Tweed","Tweed"
335375,"Penwhapple Reservoir",55.23585144,-4.747897404,"Doon Group",""
10048,"Perth",56.41191473,-3.434206313,"Tay","Tay"
341345,"Perth Norwich Union",56.38611935,-3.464092253,"Tay",""
336365,"Peter s Bridge",57.59839179,-4.428885478,"Conon Group","Cromarty Coastal"
14985,"Philiphaugh",55.53980549,-2.890068293,"Tweed","Yarrow Water"
115632,"Picketlaw Reservoir",55.73611493,-4.281846657,"Clyde",""
234293,"Pitcaple",57.32351879,-2.464869508,"Don (Aberdeenshire)","Urie"
14963,"Pitlochry",56.69656771,-3.720794881,"Tay","Tummel"
14935,"Pitnacree",56.66006824,-3.756901303,"Tay","Tay"
486057,"Pluscarden Abbey",57.59946107,-3.433170424,"Findhorn Group","Black Burn"
234294,"Polhollick",57.05514629,-3.083180673,"Dee (Aberdeenshire)","Dee (Grampian)"
234295,"Polloch",56.75844885,-5.613663683,"Loch Sheil Group","Allt Coire nan Con"
14884,"Polmonthill",55.99837265,-3.681998769,"Firth of Forth Group","Avon (Forth Valley)"
15187,"Polmonthill STW",55.99776804,-3.680208641,"Firth of Forth Group",""
234296,"Poolewe",57.76144201,-5.599076889,"Loch Maree group","Ewe"
335977,"Port Henderson",57.69574193,-5.777276479,"---",""
115633,"Port William",54.76282686,-4.582967298,"---",""
115634,"Portling",54.87093795,-3.744601282,"Dee (Galloway)",""
15149,"Portmoak",56.19239436,-3.334726298,"Firth of Forth Group",""
15213,"Prestonpans (Burnside)",55.95872741,-2.978593276,"---",""
344764,"Prestwick",55.50523784,-4.610940702,"Irvine and Ayr",""
365224,"Prop of Ythsie Borehole",57.37044329,-2.2006336,"---",""
14915,"Prosen Bridge",56.71469976,-2.988763564,"Esk Group","Prosen Water"
335575,"Quarry Head",57.63465034,-2.025944065,"Ythan Group",""
115387,"Quidnish",57.78007744,-6.897394589,"---",""
517413,"Quinloch Bridge",56.00926669,-4.375847831,"Leven (Durnbartonshire)","Blane Water"
115638,"Quinloch Farm",56.0079586,-4.377500029,"Leven (Durnbartonshire)",""
133763,"Racks Moss Deep",55.03991121,-3.520429847,"---",""
15128,"Rawburn Filters",55.79952646,-2.515607789,"---",""
234297,"Red Bridge",57.45461034,-4.494575811,"Beauly","Beauly"
336427,"Redbank",55.05197584,-3.617725701,"Cree",""
234298,"Redcraig",57.42475756,-2.802015318,"Deveron Group","Bogie"
17069,"Redford",56.65338817,-2.94996964,"---",""
133175,"Redhall",55.16743102,-3.450205295,"Annan","Kinnel Water"
133122,"Redlees",55.81909284,-4.108983791,"Clyde","Rotten Calder Water"
365226,"Redmoss Oldtown BH",57.38006252,-2.292871618,"---",""
379368,"Reedieleys Farm Obs BH Dunshalt",56.28477684,-3.223816418,"---",""
554836,"Renagour Bridge",56.17693404,-4.418601789,"Forth","Duchray Water"
133138,"Renfrew Tide Gauge",55.88537088,-4.382885201,"Clyde","Clyde"
455747,"Resallach",58.06311294,-5.015502465,"---",""
485490,"Rest and be Thankful",56.22216848,-4.859016846,"Firth of Clyde Group",""
115390,"Rhian Bridge",58.11499626,-4.439159665,"Shin Group",""
336217,"Rhiconich",58.42139172,-4.991227379,"Laxford Group",""
356990,"Rhidorroch",57.90929699,-5.117024011,"Laxford Group","Ullapool"
335798,"Rhynie",57.33512153,-2.830209837,"---",""
368013,"RhynieGS",57.3317252,-2.828953912,"Deveron Group",""
133123,"Robstone",55.25880544,-4.807721027,"Doon Group","Water of Girvan"
234300,"Rosehall",57.98210062,-4.586149187,"Shin Group","Cassley"
331473,"Roseisle Maltings",57.66877427,-3.472586537,"---",""
133124,"Ross Priory",56.05257642,-4.55746111,"Leven (Durnbartonshire)","Loch Lomond"
15070,"Rossie Farm",56.29912602,-3.202717904,"Firth of Tay Group",""
133139,"Rothesay Tide Gauge",55.83882721,-5.052449446,"Firth of Clyde Group","Cowal/Clyde Sealochs Coastal"
115239,"Rothienorman",57.40900118,-2.466784574,"Ythan Group",""
133176,"Rowanburnfoot",55.07463868,-2.918221754,"Esk (Dumfriesshire)","Liddel Water"
581105,"Royal Brackla Lade",57.55531817,-3.887903021,"Findhorn Group","Unnamed trib of Nairn"
133177,"Rusko",54.90579321,-4.197617244,"Cree","Water of Fleet"
15155,"Saline",56.12224003,-3.585958925,"Forth",""
15223,"Samuelston",55.9302059,-2.824222817,"---",""
115645,"Saughall",55.60098751,-4.226431521,"Irvine and Ayr",""
347562,"Scardroy No3",57.51892459,-4.985935657,"Shin Group",""
335655,"Scotlandwell",56.19992436,-3.306941917,"---",""
115240,"Scotsmill 3",57.67727732,-2.654616861,"---",""
335201,"Scottish Seafarms BH2",57.46178266,-4.486777359,"Beauly",""
601518,"Seater LF BH GMP24",58.5230641386388,-3.30030961308379,"---",""
574971,"Seilich Dam",56.96866496,-4.035393912,"Spey",""
15113,"Selkirk (Toft House)",55.54658876,-2.845812576,"---",""
234305,"Sgodachail",57.89327664,-4.546976399,"Shin Group","Carron (Sutherland)"
234306,"Shenachie",57.37739614,-3.954996467,"Findhorn Group","Findhorn"
234307,"Sheriffmills",57.64636934,-3.351933142,"Findhorn Group","Lossie"
133125,"Shewalton",55.59709275,-4.627788758,"Irvine and Ayr","Irvine"
234310,"Shielfoot",56.76454538,-5.820892452,"Loch Alsh Group","Shiel"
337108,"Shielsknowe",NaN,NaN,"---",""
14975,"Shiplaw",55.72796917,-3.207291434,"Tweed","Eddleston Water"
494255,"Shotts WWTW",55.81395203,-3.811987501,"Clyde",""
601657,"Sighthill Monitoring BH GRO101",55.873265403247,-4.24373655389965,"---",""
601658,"Sighthill Monitoring BH Z1_ROT_604",55.8735147875958,-4.23348806063428,"---",""
133126,"Sills of Clyde",55.66312399,-3.70505823,"Clyde","Clyde"
234313,"Skeabost",57.45437017,-6.311235369,"Inner Hebrides","Snizort"
464630,"Slamannan",55.94205217,-3.832217321,"Firth of Forth Group",""
234314,"Sluggan",57.27399763,-3.875997348,"Spey",""
115647,"Solwaybank",55.08629786,-3.086937218,"Esk (Dumfriesshire)",""
115648,"Sorbie",54.79252816,-4.42628864,"Cree",""
15098,"South Drumdowie No 2",56.30034834,-3.837277041,"---",""
115649,"South Moorhouse",55.73251416,-4.350287842,"Clyde",""
234315,"Spey Dam",57.01121062,-4.336367491,"Spey","Spey"
133128,"Spiers Bridge",55.80186787,-4.32218584,"Clyde","Auldhouse Burn"
14871,"Spilmersford",55.9100322,-2.871497598,"Tyne (Lothian)","Tyne"
15214,"Spott (Halls)",55.94697067,-2.55878051,"---",""
15012,"Sprouston",55.61103047,-2.395690658,"Tweed","Tweed"
14930,"St Michaels",56.3903691,-2.908114188,"Firth of Tay Group","Motray Water"
335620,"St Monance",56.2047855,-2.78271364,"Firth of Forth Group",""
532968,"Sterling Mills Gauging Station",56.14812902,-3.738809826,"Forth","Devon"
536844,"Stewarton",55.72543649,-4.445306033,"Irvine and Ayr",""
345032,"Stobs Castle",55.38179195,-2.780516606,"Tweed","Slitrig"
369551,"Stonyford",56.84214794,-2.811870347,"Esk Group",""
557485,"Stranraer Tide Gauge",54.90622876,-5.029804979,"Firth of Clyde Group","Loch Ryan"
344550,"Strathain BH1 LF",57.918039205956,-5.17120472624761,"---",""
115651,"Strathclyde Park",55.80192931,-4.049896521,"---",""
300383,"Strathkelvin House",55.94300475,-4.172710018,"Clyde",""
11368,"Strathkinness",56.33136897,-2.863918962,"Firth of Tay Group",""
14931,"Strathmiglo",56.27758355,-3.253078016,"Firth of Tay Group","Eden (Fife)"
379370,"Strathmiglo Obs BH Strathmiglo",56.27752654,-3.258696644,"---",""
234316,"Strathpeffer",57.59297854,-4.523041423,"Conon Group","Peffery"
234319,"Strathy Bridge",58.55872143,-4.002604762,"Naver group","Strathy"
15172,"Strathyre",56.32054504,-4.328975608,"Forth",""
536544,"Stromness Tide Gauge",58.96195697,-3.297046663,"Orkneys","North Sea"
361047,"Strowan",56.36918493,-3.92115763,"Earn",""
234321,"Struy",57.42569662,-4.682400374,"Beauly","Farrar"
51893,"Swanston Raingauge",55.9003031857556,-3.2130238090888,"---",""
15125,"Swinton",55.71865343,-2.266680155,"---",""
14918,"Tannadice",56.7088965,-2.857771833,"Esk Group","South Esk (Angus)"
116037,"Tarbert Tidal",55.8645479,-5.411186791,"Firth of Clyde Group","Loch Fyne"
511327,"Tarland WWTP",57.12504883,-2.851450464,"Dee (Aberdeenshire)",""
234324,"Tarroul",58.47619579,-3.267060495,"Wick Group","Wick"
14999,"Teviothead",55.34222734,-2.936481216,"Tweed","Teviot"
115244,"The Lecht",57.20200168,-3.249607166,"Spey",""
15158,"Tillicoultry",56.148819,-3.7458095,"Forth",""
115654,"Tobermory",56.62026156,-6.080645248,"Inner Hebrides",""
337079,"Toldrie",56.26660364,-2.675318166,"---",""
564863,"Tomatin No2",57.33816398,-4.013360208,"Findhorn Group",""
15190,"Torduff",55.8968016,-3.267160193,"Almond Group",""
115655,"Torhouse Mill",54.86683114,-4.495509107,"---",""
115404,"Torridon",57.54431959,-5.506983484,"---",""
234326,"Torwinny",57.52198313,-3.446843553,"Findhorn Group",""
323188,"Townfoot (Glencaple)",54.99473579,-3.568993615,"Nith",""
234327,"Tromie Bridge",57.0717185,-3.998638147,"Spey","Tromie"
115247,"Tulchan",57.39918687,-3.44381882,"Spey",""
133130,"Tulliford Mill",55.64374172,-3.75902119,"Clyde","Clyde"
14883,"Turnhouse",55.94528452,-3.345442654,"Almond Group","Gogar Burn"
506153,"Unthank Bridge",55.24336243,-2.967499315,"Esk (Dumfriesshire)","Ewes Water"
506152,"Unthank Raingauge",55.24281443,-2.964073002,"Esk (Dumfriesshire)",""
115657,"Upper Black Laggan",55.06299005,-4.387612866,"Dee (Galloway)",""
116007,"Upper Monachyle",56.39271229,-4.463706898,"Forth","Monachyle"
115406,"Urquhart",57.59399199,-4.374371661,"Conon Group",""
133131,"Victoria Bridge",56.53983375,-4.813560642,"Awe and Etive","Linne nam Beathach"
15101,"Victoria Lodge",55.4925265,-3.414675883,"Tweed",""
234331,"Wardend Bridge",57.58239454,-3.608335401,"Findhorn Group","Mosset Burn"
133178,"Waterhead",55.37439338,-4.304549757,"Nith","Nith"
133133,"Waterside",55.77868352,-4.240656047,"Clyde","Kittoch Water"
459911,"Waterside Farm Obs BH",55.04847338,-3.640359968,"---",""
369554,"Waterside Perth",56.89929851,-2.820760629,"Esk Group","North Esk (Tayside)"
115660,"Waulkmill Glen",55.79484353,-4.353627607,"Clyde",""
116008,"Weisdale Mill",60.2593269,-1.288604022,"Shetlands","Weisdale Burn"
368491,"Wellsies Burn",56.52284051,-3.293836481,"Tay",""
133135,"Wellwood",55.5109582,-4.123670365,"Irvine and Ayr","Ayr"
115409,"West Sandwick Yell",60.58602053,-1.179039039,"---",""
525685,"Wester Arboll BH",57.8099688369647,-3.89340149141287,"---",""
14944,"Wester Cardean",56.60590455,-3.151232647,"Tay","Isla (Tayside)"
15049,"Westhall",56.32099028,-3.082510265,"---",""
115250,"Westhill",57.14756943,-2.291989375,"Dee (Aberdeenshire)",""
15169,"Westwood Farm Lane",56.12907309,-4.013078635,"---",""
502896,"Wheeb Bridge",55.09004091,-4.661771619,"Cree","Cree"
14881,"Whitburn",55.87157334,-3.682936938,"Almond Group","Almond (Lothian)"
355980,"White Bridge",57.33362742,-4.673089381,"Ness","Enrick"
502874,"White Clauchrie",55.1412921,-4.677220867,"Cree",""
133180,"White Laggan",55.07382387,-4.401198238,"Dee (Galloway)","White Laggan"
133181,"Whitesands",55.06536955,-3.610749368,"Nith","Nith"
15067,"Wolfhill",56.48512657,-3.370467732,"Tay",""
234333,"Woodend",57.0501291,-2.603567118,"Dee (Aberdeenshire)","Dee (Grampian)"
133182,"Woodfoot",55.29395422,-3.41903487,"Annan","Annan"